id_eess,codigo_renaes,categoria,nombre,diresa,red,direccion,longitud,latitud,id_ubigeo
1,1,II-2,"HOSPITAL IQUITOS ""CESAR GARAYAR GARCIA""",LORETO,NO PERTENECE A NINGUNA RED,CALLE CORNEJO PORTUGAL 1710 IQUITOS MAYNAS LORETO,-73.253653,-3.762818,1453
2,3,III-1,"HOSPITAL REGIONAL DE LORETO ""FELIPE SANTIAGO ARRIOLA IGLESIAS""",LORETO,NO PERTENECE A NINGUNA RED,AVENIDA AVENIDA 28 DE JULIO S/N S/N AVENIDA 28 DE JULIO S/N PUNCHANA MAYNAS LORETO,-73.25341698,-3.72696048,1460
3,4,I-3,C.S. I-3 SANTA MARIA DE NANAY,LORETO,MAYNAS CIUDAD,OTROS CASERIO DE SANTA MARIA DE NANAY CASERIO DE SANTA MARIA DE NANAY ALTO NANAY MAYNAS LORETO,-73.69678536,-3.88899772,1454
4,5,I-1,SAMITO,LORETO,MAYNAS CIUDAD,OTROS CASERIO DE SAMITO SIN NUMERO DISTRITO ALTO NANAY PROVINCIA MAYNAS DEPARTAMENTO LORETO,-73.61092844,-3.86516692,1454
5,6,I-1,DIAMANTE AZUL,LORETO,MAYNAS CIUDAD,OTROS CASERIO DE DIAMANTE AZUL DISTRITO ALTO NANAY PROVINCIA MAYNAS DEPARTAMENTO LORETO,-73.77967025,-3.9013143,1454
6,7,I-4,"I-4 CENTRO DE SALUD MORONA COCHA ""JORGE AREVALO MELHO""",LORETO,MAYNAS CIUDAD,OTROS CABALLERO LASTRE SIN NUMERO CABALLERO LASTRE SIN NUMERO IQUITOS MAYNAS LORETO,-73.35446,-3.75344,1453
7,8,I-3,TUPAC AMARU DE IQUITOS,LORETO,MAYNAS CIUDAD,SEÑOR DE SIPAN Nº317,-73.3622,-3.77097,1453
8,9,I-3,SAN ANTONIO DE IQUITOS,LORETO,MAYNAS CIUDAD,OTROS ACTUALIZAR ACTUALIZAR IQUITOS MAYNAS LORETO,-73.37176,-3.77439,1453
9,10,I-2,1RO. DE ENERO,LORETO,MAYNAS CIUDAD,PROLONGACIÓN PROLONGACION PUTUMAYO S/N NÚMERO S/N DISTRITO IQUITOS PROVINCIA MAYNAS DEPARTAMENTO LORETO,-73.35469,-3.78054,1453
10,11,I-1,VARGAS GUERRA,LORETO,MAYNAS CIUDAD,CASERIO VARGAS GUERRA,-73.3462,-3.78329,1453
11,12,I-1,MANACAMIRI,LORETO,MAYNAS CIUDAD,CASERIO MANACAMIRI - RIO NANAY,-73.28273,-3.71951,1453
12,13,I-2,P.S I-2 MAYNAS,LORETO,MAYNAS CIUDAD,OTROS SAN ANTONIO S/N NÚMERO S/N DISTRITO IQUITOS PROVINCIA MAYNAS DEPARTAMENTO LORETO,-73.40499,-3.80507,1453
13,14,I-2,FERNANDO LORES,LORETO,MAYNAS CIUDAD,PROLONGACIÓN PROLONGACION PUTUMAYO DISTRITO IQUITOS PROVINCIA MAYNAS DEPARTAMENTO LORETO,-73.46231,-3.83055,1453
14,15,I-2,P.S. I-1 PORVENIR DE IQUITOS,LORETO,MAYNAS CIUDAD,OTROS AA.HH. PORVENIR SIN NUMERO DISTRITO IQUITOS PROVINCIA MAYNAS DEPARTAMENTO LORETO,-73.51423,-3.83116,1453
15,16,I-4,BELLAVISTA NANAY,LORETO,MAYNAS CIUDAD,AVENIDA AV. LA MARINA Nº2880 AV. LA MARINA Nº2880 PUNCHANA MAYNAS LORETO,-73.3468,-3.4753,1460
16,17,I-2,P.S. PADRE COCHA,LORETO,MAYNAS CIUDAD,OTROS ACTUALIZAR S/N ACTUALIZAR PUNCHANA MAYNAS LORETO,-73.27162,-3.69383,1460
17,18,I-1,BARRIO FLORIDO,LORETO,MAYNAS CIUDAD,OTROS COMUNIDAD DE BARRIO FLORIDO RIO AMAZONAS DISTRITO PUNCHANA PROVINCIA MAYNAS DEPARTAMENTO LORETO,-73.19999,-3.62524,1460
18,19,I-1,SANTA MARIA DEL OJEAL,LORETO,MAYNAS CIUDAD,OTROS CASERIO DE SANTA MARIA DEL OJEAL DISTRITO PUNCHANA PROVINCIA MAYNAS DEPARTAMENTO LORETO,-73.16687,-3.60286,1460
19,20,I-1,SANTA CLARA DEL OJEAL,LORETO,MAYNAS CIUDAD,OTROS CASERIO DE SANTA CLARA DEL OJEAL DISTRITO PUNCHANA PROVINCIA MAYNAS DEPARTAMENTO LORETO,-73.19058,-3.62543,1460
20,21,I-1,SARGENTO LORES,LORETO,MAYNAS CIUDAD,LOCALIDAD DE SARGENTO LORES RIO NANAY (QUEBRADA MOMON),-73.41136,-3.50736,1460
21,22,I-1,PICURO YACU,LORETO,MAYNAS CIUDAD,OTROS CASERIO DE PICUROYACU DISTRITO PUNCHANA PROVINCIA MAYNAS DEPARTAMENTO LORETO,-73.22465,-3.63336,1460
22,23,I-3,C.S. I-3 9 DE OCTUBRE,LORETO,MAYNAS CIUDAD,CALLE CALLE SAN MARTIN SIN NUMERO CALLE SAN MARTIN SIN NUMERO BELEN MAYNAS LORETO,-73.24459961,-3.76457022,1462
23,24,I-3,CARDOZO,LORETO,MAYNAS CIUDAD,CALLE CALLE QUIÑONES Nº300 CALLE QUIÑONES Nº300 BELEN MAYNAS LORETO,-73.27373847,-3.77469658,1462
24,25,I-4,SAN JUAN DE MIRAFLORES,LORETO,MAYNAS CIUDAD,AVENIDA AV. LOS ANGELES SIN NUMERO AV. LOS ANGELES SIN NUMERO SAN JUAN BAUTISTA MAYNAS LORETO,-73.28655,-3.77442,1463
25,26,I-2,PROGRESO DE SAN JUAN BAUTISTA,LORETO,MAYNAS CIUDAD,LA PARTICIPACION SIN NUMERO SAN JUAN,-73.287,-3.774418,1463
26,27,I-3,AMERICA DE SAN JUAN BAUTISTA,LORETO,MAYNAS CIUDAD,PASAJE PASAJE 12 OCTUBRE AA.HH AMERICA DISTRITO SAN JUAN BAUTISTA PROVINCIA MAYNAS DEPARTAMENTO LORETO,-73.29931008,-3.78788195,1463
27,28,I-1,RUMOCOCHA,LORETO,MAYNAS CIUDAD,OTROS CASERIO RUMOCOCHA DISTRITO SAN JUAN BAUTISTA PROVINCIA MAYNAS DEPARTAMENTO LORETO,-73.31303996,-3.77936771,1463
28,29,I-3,SANTA CLARA DE NANAY,LORETO,MAYNAS CIUDAD,OTROS CASERIO DE SANTA CLARA DE NANAY SIN NUMERO DISTRITO SAN JUAN BAUTISTA PROVINCIA MAYNAS DEPARTAMENTO LORETO,-73.33914568,-3.78567154,1463
29,30,I-2,SANTO TOMAS DE SAN JUAN DE BAUTISTA,LORETO,MAYNAS CIUDAD,OTROS ACTUALIZAR DISTRITO SAN JUAN BAUTISTA PROVINCIA MAYNAS DEPARTAMENTO LORETO,-73.33900617,-3.80086987,1463
30,31,I-2,ZUNGAROCOCHA,LORETO,MAYNAS CIUDAD,ACTUALIZAR,-73.35632,-3.82961,1463
31,32,I-2,QUISTOCOCHA,LORETO,MAYNAS CIUDAD,OTROS CASERIO DE QUISTOCOHA SIN NUMERO DISTRITO SAN JUAN BAUTISTA PROVINCIA MAYNAS DEPARTAMENTO LORETO,-73.32605561,-3.82305624,1463
32,33,I-2,"ASOCIACION DE COMUNIDAD LOCAL DE ADMINISTRACION DE SALUD ""EL PAUJIL""",LORETO,MAYNAS CIUDAD,CARRETERA CARRETERA IQUITOS NAUTA DISTRITO SAN JUAN BAUTISTA PROVINCIA MAYNAS DEPARTAMENTO LORETO,-73.43853954,-4.04314539,1463
33,34,I-1,MORALILLO,LORETO,MAYNAS CIUDAD,KILOMETRO 14.5 CARRETERA IQUITOS NAUTA,-73.34759,-3.88045,1463
34,35,I-1,P.S. I-1 VARILLAL,LORETO,MAYNAS CIUDAD,CARRETERA CARRETERA IQUITOS-NAUTA KM 14 DISTRITO SAN JUAN BAUTISTA PROVINCIA MAYNAS DEPARTAMENTO LORETO,-73.35122673,-3.88923015,1463
35,36,I-1,SAN PABLO DE CUYANA,LORETO,MAYNAS CIUDAD,MARGEN DERECHO RIO NANAY,-73.38793,-3.84573,1463
36,37,I-3,TAMSHIYACU,LORETO,MAYNAS PERIFERIE,OTROS ACTUALIZAR S/N ACTUALIZAR FERNANDO LORES MAYNAS LORETO,-73.157948,-4.003332,1455
37,38,I-1,SANTA ANA DE MUYUY,LORETO,MAYNAS PERIFERIE,ACTUALIZAR,-73.2136,-3.92383,1455
38,39,I-1,DOS DE MAYO DE FERNANDO LORES,LORETO,MAYNAS PERIFERIE,ACTUALIZAR,-73.26142,-3.92339,1455
39,40,I-2,AUCAYO,LORETO,MAYNAS PERIFERIE,CASERIO AUCAYO,-73.155932,-3.858847,1455
40,41,I-1,ESPERANZA TAHUAYO,LORETO,MAYNAS PERIFERIE,ACTUALIZAR,-73.203208,-4.210405,1455
41,42,I-1,MANGUA DE FERNANDO LORES,LORETO,MAYNAS PERIFERIE,ACTUALIZAR,-73.27271,-4.14895,1455
42,43,I-1,NUEVO PROGRESO,LORETO,MAYNAS PERIFERIE,OTROS ACTUALIZAR DISTRITO FERNANDO LORES PROVINCIA MAYNAS DEPARTAMENTO LORETO,-73.2625513,-3.7700696,1455
43,45,I-1,YACAPANA I ZONA,LORETO,MAYNAS PERIFERIE,ACTUALIZAR,-73.331911,-4.171474,1455
44,46,I-1,NUEVO VALENTIN,LORETO,MAYNAS PERIFERIE,ACTUALIZAR,-73.155831,-4.13447,1455
45,47,I-1,SAN SALVADOR DE OMAGUAS,LORETO,MAYNAS PERIFERIE,ACTUALIZAR,-73.378128,-4.174686,1455
46,48,I-1,MUNICHS - RIO ITAYA,LORETO,MAYNAS CIUDAD,OTROS CASERIO DE MUNICHS SIN NUMERO DISTRITO BELEN PROVINCIA MAYNAS DEPARTAMENTO LORETO,-73.2560796,-3.7846151,1462
47,49,I-1,SAN ANTONIO - RIO ITAYA,LORETO,MAYNAS CIUDAD,OTROS CASERIO SAN ANTONIO - RIO ITAYA DISTRITO BELEN PROVINCIA MAYNAS DEPARTAMENTO LORETO,-73.16178,-3.77332,1462
48,50,I-1,CABO PANTOJA - RÍO AMAZONAS,LORETO,MAYNAS CIUDAD,CASERIO CABO PANTOJA SIN NUMERO,-73.1414,-3.68279,1453
49,51,I-3,6 DE OCTUBRE,LORETO,MAYNAS CIUDAD,PROLONGACIÓN PROLONGACION YURIMAGUAS SIN NUMERO PROLONGACION YURIMAGUAS SIN NUMERO BELEN MAYNAS LORETO,-73.24459961,-3.76457022,1462
50,52,I-1,SOLEDAD DE VILLA BELEN,LORETO,MAYNAS CIUDAD,OTROS CASERIO SOLEDAD DISTRITO BELEN PROVINCIA MAYNAS DEPARTAMENTO LORETO,-73.13383,-3.62485,1462
51,53,I-3,ANGAMOS,LORETO,MAYNAS PERIFERIE,OTROS ACTUALIZAR DISTRITO YAQUERANA PROVINCIA REQUENA DEPARTAMENTO LORETO,-72.87507715,-5.14818528,1489
52,54,I-3,INDIANA,LORETO,MAYNAS PERIFERIE,OTROS CASERIO DE INDIANA DISTRITO INDIANA PROVINCIA MAYNAS DEPARTAMENTO LORETO,-73.03855748,-3.49955556,1456
53,55,I-1,MANITI I ZONA,LORETO,MAYNAS PERIFERIE,OTROS CASERIO MANITI I ZONA DISTRITO INDIANA PROVINCIA MAYNAS DEPARTAMENTO LORETO,-72.83957499,-3.52020048,1456
54,56,I-1,SANTA CECILIA,LORETO,MAYNAS PERIFERIE,OTROS CASERIO DE SANTA CECILIA DISTRITO INDIANA PROVINCIA MAYNAS DEPARTAMENTO LORETO,-72.95728417,-3.60829568,1456
55,57,I-1,YANAYACU BOMBONAJE,LORETO,MAYNAS PERIFERIE,CASERIO YANAYACU BOMBONAJE,-73.10757498,-3.65124478,1456
56,58,I-1,VAINILLA,LORETO,MAYNAS PERIFERIE,OTROS CASERIO VAINILLA DISTRITO INDIANA PROVINCIA MAYNAS DEPARTAMENTO LORETO,-72.70910609,-3.5107952,1456
57,59,I-1,SINCHICUY,LORETO,MAYNAS PERIFERIE,OTROS CASERIO DE SINCHICUY DISTRITO INDIANA PROVINCIA MAYNAS DEPARTAMENTO LORETO,-73.13631239,-3.58710493,1456
58,60,I-3,FRANCISCO DE ORELLANA,LORETO,MAYNAS PERIFERIE,OTROS CASERIO DE FRANCISCO DE ORELLANA DISTRITO LAS AMAZONAS PROVINCIA MAYNAS DEPARTAMENTO LORETO,-72.76548514,-3.4216635,1457
59,61,I-1,SANTA MARIA DE MARUPA,LORETO,MAYNAS PERIFERIE,OTROS CASERIO DE SANTA MARIA DE MARUPA DISTRITO LAS AMAZONAS PROVINCIA MAYNAS DEPARTAMENTO LORETO,-72.64943578,-3.48690341,1457
60,62,I-1,ORAN,LORETO,MAYNAS PERIFERIE,OTROS CASERIO YANASHI DISTRITO LAS AMAZONAS PROVINCIA MAYNAS DEPARTAMENTO LORETO,-72.50816035,-3.47914636,1457
61,63,I-3,YANASHI,LORETO,MAYNAS PERIFERIE,OTROS CASERIO YANASHI DISTRITO LAS AMAZONAS PROVINCIA MAYNAS DEPARTAMENTO LORETO,-72.25568419,-3.58767345,1457
62,64,I-3,IPRESS I-3 MAZAN,LORETO,MAYNAS PERIFERIE,OTROS CASERIO MAZAN CASERIO MAZAN MAZAN MAYNAS LORETO,-73.09167713,-3.49795605,1458
63,65,I-1,TAMANCO,LORETO,MAYNAS PERIFERIE,OTROS CASERIO TAMANCO DISTRITO MAZAN PROVINCIA MAYNAS DEPARTAMENTO LORETO,-72.98970328,-3.31561138,1458
64,66,II-1,HOSPITAL II-1 SANTA CLOTILDE,LORETO,MAYNAS PERIFERIE,OTROS ACTUALIZAR ACTUALIZAR NAPO MAYNAS LORETO,-73.67675328,-2.48939688,1459
65,67,I-1,P.S. I-1 NUEVA LIBERTAD O TUTAPISHCO,LORETO,MAYNAS PERIFERIE,OTROS ACTUALIZAR ACTUALIZAR NAPO MAYNAS LORETO,-73.13872479,-3.10986745,1459
66,68,I-1,NEGRO URCO,LORETO,MAYNAS PERIFERIE,OTROS ACTUALIZAR ACTUALIZAR NAPO MAYNAS LORETO,-73.39085124,-3.02047039,1459
67,69,I-1,TACSHA CURARAY,LORETO,MAYNAS PERIFERIE,OTROS ACTUALIZAR ACTUALIZAR NAPO MAYNAS LORETO,-73.54074886,-2.81318551,1459
68,70,I-1,CAMPO SERIO,LORETO,MAYNAS PERIFERIE,OTROS ACTUALIZAR ACTUALIZAR TORRES CAUSANA MAYNAS LORETO,-74.70617865,-1.79398104,1461
69,71,I-2,ANGOTEROS,LORETO,MAYNAS PERIFERIE,OTROS ACTUALIZAR ACTUALIZAR TORRES CAUSANA MAYNAS LORETO,-74.61051508,-1.56863131,1461
70,72,I-1,TEMPESTAD,LORETO,MAYNAS PERIFERIE,OTROS ACTUALIZAR ACTUALIZAR TORRES CAUSANA MAYNAS LORETO,-74.88385358,-1.28226111,1461
71,74,I-2,P.S. I-2 MCABO PANTOJA DE TORRES CAUSANA,LORETO,MAYNAS PERIFERIE,OTROS ACTUALIZAR ACTUALIZAR TORRES CAUSANA MAYNAS LORETO,-75.17465847,-0.97041934,1461
72,75,I-1,TORRES CAUSANA,LORETO,MAYNAS PERIFERIE,OTROS ACTUALIZAR ACTUALIZAR TORRES CAUSANA MAYNAS LORETO,-75.00459122,-1.10448905,1461
73,76,I-1,SAN ANTONIO DE CACAO,LORETO,RAMON CASTILLA,ACTUALIZAR,-70.32153667,-3.81342833,1475
74,77,I-3,C.S. I-3 EL ESTRECHO,LORETO,MAYNAS PERIFERIE,OTROS CASERIO DEL ESTRECHO CASERIO DEL ESTRECHO PUTUMAYO PUTUMAYO LORETO,-72.67166532,-2.44966707,1502
75,78,I-1,EL ALAMO,LORETO,MAYNAS PERIFERIE,OTROS CASERIO EL ALAMO S/N YAGUAS PUTUMAYO LORETO,-70.10894079,-2.84244359,1505
76,79,I-1,P.S. I-1 HUAPAPA,LORETO,MAYNAS PERIFERIE,OTROS CASERIO DE HUAPAPA S/N YAGUAS PUTUMAYO LORETO,-70.42093314,-2.50728174,1505
77,80,I-2,REMANSO,LORETO,MAYNAS PERIFERIE,OTROS CASERIO DE REMANSO S/N YAGUAS PUTUMAYO LORETO,-71.29803,-2.37949,1505
78,81,I-1,BETANIA,LORETO,MAYNAS PERIFERIE,OTROS CASERIO DE BETANIA S/N YAGUAS PUTUMAYO LORETO,-71.42941,-2.39395,1505
79,82,I-1,LA FLORIDA,LORETO,MAYNAS PERIFERIE,OTROS CASERIO DE FLORIDA DISTRITO PUTUMAYO PROVINCIA PUTUMAYO DEPARTAMENTO LORETO,-74.6671961,-0.3754476,1502
80,83,I-1,SAN PEDRO DE TOTOYA,LORETO,MAYNAS PERIFERIE,CASERIO SAN PEDRO DE TOTOYA,-72.1713,-2.46567,1502
81,84,I-1,FLOR DE AGOSTO,LORETO,MAYNAS PERIFERIE,OTROS CASERIO DE FLOR DE AGOSTO DISTRITO PUTUMAYO PROVINCIA PUTUMAYO DEPARTAMENTO LORETO,-73.02529,-2.36563,1502
82,85,I-1,IPRESS I-1 SAN FRANCISCO DE ERE,LORETO,MAYNAS PERIFERIE,OTROS CASERIO DE SAN FRANCISCO DE ERE S/N ROSA PANDURO PUTUMAYO LORETO,-74.6671961,-0.3754476,1503
83,86,I-1,SANTA MERCEDES,LORETO,MAYNAS PERIFERIE,OTROS CASERIO DE SANTA MERCEDES S/N ROSA PANDURO PUTUMAYO LORETO,-73.41101,-1.79007,1503
84,87,I-1,BELLAVISTA DE TENIENTE MANUEL CLAVERO,LORETO,MAYNAS PERIFERIE,OTROS CASERIO DE BELLAVISTA DISTRITO TENIENTE MANUEL CLAVERO PROVINCIA PUTUMAYO DEPARTAMENTO LORETO,-74.6671961,-0.3754476,1504
85,88,I-2,P.S I-2 SOPLIN VARGAS,LORETO,MAYNAS PERIFERIE,OTROS CASERIO DE SOPLIN VARGAS CASERIO DE SOPLIN VARGAS TENIENTE MANUEL CLAVERO PUTUMAYO LORETO,-74.67610875,-0.37468545,1504
86,89,I-1,TRES FRONTERAS,LORETO,MAYNAS PERIFERIE,OTROS CASERIO DE TRES FRONTERAS CASERIO DE TRES FRONTERAS TENIENTE MANUEL CLAVERO PUTUMAYO LORETO,-75.22828834,-0.09638479,1504
87,90,I-1,NUEVA ESPERANZA DE TENIENTE MANUEL CLAVERO,LORETO,MAYNAS PERIFERIE,OTROS CASERIO DE NUEVA ESPERANZA DISTRITO TENIENTE MANUEL CLAVERO PROVINCIA PUTUMAYO DEPARTAMENTO LORETO,-74.6671961,-0.3754476,1504
88,91,I-4,NAUTA - NUCLEO BASE,LORETO,LORETO,CALLE CALLE RIOJA Nº414 CALLE RIOJA Nº414 NAUTA LORETO LORETO,-73.57614988,-4.50579542,1470
89,92,I-1,SAN JOAQUIN DE OMAGUAS,LORETO,LORETO,OTROS COMUNIDAD DE SAN JOAQUIN DE OMAGUAS COMUNIDAD DE SAN JOAQUIN DE OMAGUAS NAUTA LORETO LORETO,-73.40722,-4.26754,1470
90,93,I-2,P.S. I-2 MIRAFLORES DENAUTA,LORETO,LORETO,OTROS ACTUALIZAR ACTUALIZAR NAUTA LORETO LORETO,-74.01359493,-4.50974402,1470
91,94,I-1,PALIZADA,LORETO,LORETO,OTROS ACTUALIZAR ACTUALIZAR NAUTA LORETO LORETO,-74.01375,-4.55743,1470
92,95,I-1,SANTA FE,LORETO,LORETO,OTROS ACTUALIZAR ACTUALIZAR NAUTA LORETO LORETO,-73.75621,-4.57484,1470
93,96,I-1,GRAU,LORETO,LORETO,OTROS ACTUALIZAR ACTUALIZAR NAUTA LORETO LORETO,-73.45901,-4.42984,1470
94,97,I-1,SAN REGIS,LORETO,LORETO,OTROS ACTUALIZAR DISTRITO NAUTA PROVINCIA LORETO DEPARTAMENTO LORETO,-73.90528637,-4.51254123,1470
95,98,I-3,SANTA RITA DE CASTILLA,LORETO,LORETO,OTROS POBLADO DE SANTA RITA DE CASTILLA - RIO MARAÑON DISTRITO PARINARI PROVINCIA LORETO DEPARTAMENTO LORETO,-74.38039053,-4.59061924,1471
96,99,I-1,SANTA ISABEL DE YUMBATURO,LORETO,LORETO,OTROS ACTUALIZAR DISTRITO PARINARI PROVINCIA LORETO DEPARTAMENTO LORETO,-74.25813893,-4.58150907,1471
97,100,I-1,SANTA ROSA DE LAGARTO,LORETO,LORETO,OTROS ACTUALIZAR DISTRITO PARINARI PROVINCIA LORETO DEPARTAMENTO LORETO,-74.54530638,-4.50349995,1471
98,101,I-3,INTUTO,LORETO,LORETO,OTROS 28 DE JULIO S/N TIGRE LORETO LORETO,-74.783292,-3.49001,1472
99,102,I-1,LIBERTAD DEL TIGRE,LORETO,LORETO,OTROS ACTUALIZAR ACTUALIZAR TIGRE LORETO LORETO,-74.407705,-3.799972,1472
100,103,I-1,PAICHE PLAYA,LORETO,LORETO,OTROS ACTUALIZAR DISTRITO TIGRE PROVINCIA LORETO DEPARTAMENTO LORETO,-75.298476,-3.029514,1472
101,104,I-3,CENTRO DE SALUD 12 DE OCTUBRE,LORETO,LORETO,OTROS ACTUALIZAR ACTUALIZAR TIGRE LORETO LORETO,-75.80234,-2.38769,1472
102,105,I-4,VILLA TROMPETEROS,LORETO,LORETO,OTROS CASERIO VILLA TROMPETERO CASERIO VILLA TROMPETERO TROMPETEROS LORETO LORETO,-75.060695,-3.806327,1473
103,106,I-2,P.S I-2 PAMPA HERMOSA DE TROMPETEROS,LORETO,LORETO,OTROS ACTUALIZAR ACTUALIZAR TROMPETEROS LORETO LORETO,-75.79719,-3.012,1473
104,107,I-1,P.S. I-1 NUEVA JERUSALEN,LORETO,LORETO,OTROS COMUNIDAD DE NUEVA JERUSALEN COMUNIDAD DE NUEVA JERUSALEN TROMPETEROS LORETO LORETO,-76.19119,-2.83875,1473
105,108,I-1,PROVIDENCIA,LORETO,LORETO,OTROS ACTUALIZAR DISTRITO TROMPETEROS PROVINCIA LORETO DEPARTAMENTO LORETO,-74.64935,-3.77295,1473
106,109,I-3,MAYPUCO,LORETO,LORETO,OTROS MARGEN DERECHA DEL RIO MARAÑON MARGEN DERECHA DEL RIO MARAÑON URARINAS LORETO LORETO,-75.12029996,-4.82842962,1474
107,110,I-1,NUEVA ESPERANZA DE URARINAS,LORETO,LORETO,OTROS ACTUALIZAR DISTRITO URARINAS PROVINCIA LORETO DEPARTAMENTO LORETO,-75.03228,-4.80601,1474
108,111,I-1,CONCORDIA,LORETO,LORETO,OTROS ACTUALIZAR DISTRITO URARINAS PROVINCIA LORETO DEPARTAMENTO LORETO,-74.76706889,-4.58626715,1474
109,112,I-1,REFORMA,LORETO,LORETO,OTROS ACTUALIZAR DISTRITO URARINAS PROVINCIA LORETO DEPARTAMENTO LORETO,-75.67237,-4.65436,1474
110,113,I-3,CENTRO DE SALUD I-3 PEVAS,LORETO,RAMON CASTILLA,OTROS COMUNIDAD DE PEVAS RIO AMAZONAS COMUNIDAD DE PEVAS RIO AMAZONAS PEBAS MARISCAL RAMON CASTILLA LORETO,-71.86058167,-3.31967333,1476
111,114,I-1,HUANTA,LORETO,RAMON CASTILLA,OTROS ACTUALIZAR DISTRITO PEBAS PROVINCIA MARISCAL RAMON CASTILLA DEPARTAMENTO LORETO,-72.051,-3.48666833,1476
112,115,I-1,PUCAURQUILLO,LORETO,RAMON CASTILLA,OTROS ACTUALIZAR DISTRITO PEBAS PROVINCIA MARISCAL RAMON CASTILLA DEPARTAMENTO LORETO,-71.916565,-3.33362833,1476
113,116,I-1,BRILLO NUEVO,LORETO,RAMON CASTILLA,OTROS ACTUALIZAR DISTRITO PEBAS PROVINCIA MARISCAL RAMON CASTILLA DEPARTAMENTO LORETO,-71.994195,-3.22624333,1476
114,117,I-1,SAN FRANCISCO DE PEVAS,LORETO,RAMON CASTILLA,OTROS ACTUALIZAR DISTRITO PEBAS PROVINCIA MARISCAL RAMON CASTILLA DEPARTAMENTO LORETO,-71.70101,-3.73050667,1476
115,118,I-4,CABALLOCOCHA,LORETO,RAMON CASTILLA,CALLE CALLE PROGRESO 425 CALLE PROGRESO 425 RAMON CASTILLA MARISCAL RAMON CASTILLA LORETO,-70.51696667,-3.90842333,1475
116,119,I-1,CHIMBOTE,LORETO,RAMON CASTILLA,ACTUALIZAR,-70.77975333,-3.93012167,1475
117,120,I-1,ISLA DEL TIGRE,LORETO,RAMON CASTILLA,ACTUALIZAR,-70.64328167,-3.83265667,1475
118,121,I-1,CUSHILLOCOCHA,LORETO,RAMON CASTILLA,ACTUALIZAR,-70.44961721,-3.94277517,1475
119,122,I-1,BELLAVISTA CALLARU,LORETO,RAMON CASTILLA,OTROS ACTUALIZAR DISTRITO RAMON CASTILLA PROVINCIA MARISCAL RAMON CASTILLA DEPARTAMENTO LORETO,-70.25112,-4.05256667,1475
120,123,I-3,SAN PABLO,LORETO,RAMON CASTILLA,OTROS CASERIO DE SAN PABLO DISTRITO SAN PABLO PROVINCIA MARISCAL RAMON CASTILLA DEPARTAMENTO LORETO,-71.10453333,-4.01976667,1478
121,124,I-1,SANTA ELENA DE IMAZA,LORETO,RAMON CASTILLA,OTROS CASERIO DE SANTA ELENA DE IMAZA DISTRITO SAN PABLO PROVINCIA MARISCAL RAMON CASTILLA DEPARTAMENTO LORETO,-71.41136667,-3.881975,1478
122,125,I-3,ISLANDIA DEL YAVARI,LORETO,RAMON CASTILLA,OTROS ACTUALIZAR ACTUALIZAR YAVARI MARISCAL RAMON CASTILLA LORETO,-70.04295178,-4.35246203,1477
123,126,I-1,BUEN SUCESO,LORETO,RAMON CASTILLA,ACTUALIZAR,,,1477
124,127,I-1,SANTA TERESA,LORETO,RAMON CASTILLA,OTROS COMUNIDAD DE SANTA TERESA DISTRITO YAVARI PROVINCIA MARISCAL RAMON CASTILLA DEPARTAMENTO LORETO,-70.51591379,-4.13983835,1477
125,128,I-1,NUEVA ESPERANZA DEL YAVARI,LORETO,RAMON CASTILLA,ACTUALIZAR,-71.959017,-4.333044,1477
126,129,I-2,SANTA ELENA,LORETO,REQUENA,OTROS ACTUALIZAR DISTRITO ALTO TAPICHE PROVINCIA REQUENA DEPARTAMENTO LORETO,-74.08503764,-6.01939646,1480
127,130,I-1,FATIMA,LORETO,REQUENA,ACTUALIZAR,-74.410817,-6.689668,1480
128,131,I-1,SAN ANTONIO DE FORTALEZA,LORETO,REQUENA,ACTUALIZAR,-74.400512,-6.763287,1480
129,132,I-3,FLOR DE PUNGA,LORETO,REQUENA,OTROS CASERIO DE FLOR DE PUNGA DISTRITO CAPELO PROVINCIA REQUENA DEPARTAMENTO LORETO,-74.15770233,-5.4046023,1481
130,133,I-1,HUATAPI,LORETO,REQUENA,OTROS ACTUALIZAR DISTRITO CAPELO PROVINCIA REQUENA DEPARTAMENTO LORETO,-74.0906582,-5.31024205,1481
131,134,I-1,SINTICO,LORETO,REQUENA,OTROS CASERIO DE SINTICO DISTRITO EMILIO SAN MARTIN PROVINCIA REQUENA DEPARTAMENTO LORETO,-74.17951863,-5.55990652,1482
132,135,I-3,TAMANCO VIEJO,LORETO,REQUENA,OTROS CASERIO TAMANCO VIEJO DISTRITO EMILIO SAN MARTIN PROVINCIA REQUENA DEPARTAMENTO LORETO,-74.28282515,-5.79426761,1482
133,136,I-3,GENARO HERRERA,LORETO,REQUENA,OTROS CASERIO DE JENARO HERRERA SIN NUMERO DISTRITO JENARO HERRERA PROVINCIA REQUENA DEPARTAMENTO LORETO,-73.66463391,-4.90499422,1488
134,137,I-3,SAN ROQUE DE MAQUIA,LORETO,REQUENA,OTROS ACTUALIZAR DISTRITO MAQUIA PROVINCIA REQUENA DEPARTAMENTO LORETO,-74.59743523,-5.83218091,1483
135,138,I-1,ARICA VIEJO,LORETO,REQUENA,OTROS ACTUALIZAR DISTRITO MAQUIA PROVINCIA REQUENA DEPARTAMENTO LORETO,-74.77802043,-6.43337468,1483
136,139,I-1,NUEVO JUNIN,LORETO,REQUENA,OTROS ACTUALIZAR DISTRITO MAQUIA PROVINCIA REQUENA DEPARTAMENTO LORETO,-74.50356872,-5.688304,1483
137,140,I-1,PIURI ISLA,LORETO,REQUENA,OTROS ACTUALIZAR DISTRITO MAQUIA PROVINCIA REQUENA DEPARTAMENTO LORETO,-74.55526047,-5.79869549,1483
138,141,I-1,NUEVO SAN JOSE,LORETO,REQUENA,OTROS ACTUALIZAR DISTRITO MAQUIA PROVINCIA REQUENA DEPARTAMENTO LORETO,-74.67638179,-5.94161739,1483
139,142,I-1,NUEVO LIBERAL,LORETO,REQUENA,OTROS CASERIO NUEVO LIBERAL DISTRITO MAQUIA PROVINCIA REQUENA DEPARTAMENTO LORETO,-74.66693626,-5.61558488,1483
140,143,I-1,VICTORIA,LORETO,REQUENA,OTROS CASERIO DE VICTORIA DISTRITO MAQUIA PROVINCIA REQUENA DEPARTAMENTO LORETO,-74.68063238,-5.65916416,1483
141,144,I-1,P.S I - 1 OBRERO,LORETO,REQUENA,OTROS CASERIO OBRERO DISTRITO MAQUIA PROVINCIA REQUENA DEPARTAMENTO LORETO,-74.65945644,-5.77186338,1483
142,145,I-1,BOLIVAR DEL MAQUIA,LORETO,REQUENA,OTROS CASERIO DE SIMON BOLIVAR DISTRITO MAQUIA PROVINCIA REQUENA DEPARTAMENTO LORETO,-74.56951403,-5.56918843,1483
143,146,I-3,CENTRO DE SALUD I-3 BRETAÑA,LORETO,REQUENA,OTROS CASERIO DE BRETAÑA DISTRITO PUINAHUA PROVINCIA REQUENA DEPARTAMENTO LORETO,-74.34552947,-5.25607497,1484
144,147,I-1,SAN CARLOS DEL PUINAHUA,LORETO,REQUENA,OTROS CASERIO DE SAN CARLOS DISTRITO PUINAHUA PROVINCIA REQUENA DEPARTAMENTO LORETO,-74.36071275,-5.33680584,1484
145,148,I-1,PS I-1 MANCO CAPAC,LORETO,REQUENA,OTROS COMUNIDAD DE MANCO CAPAC RIO PUINAHUA DISTRITO PUINAHUA PROVINCIA REQUENA DEPARTAMENTO LORETO,-74.2305585,-5.12397472,1484
146,149,I-1,HUACRACHIRO,LORETO,REQUENA,OTROS CASERIO DE HUACRACHIRO DISTRITO PUINAHUA PROVINCIA REQUENA DEPARTAMENTO LORETO,-74.41637167,-5.49540392,1484
147,150,I-4,C.S. I-4 REQUENA,LORETO,REQUENA,OTROS MARTIRES DEL PETROLEO S/N S/N MARTIRES DEL PETROLEO S/N REQUENA REQUENA LORETO,-73.8569342,-5.06288155,1479
148,151,I-1,HUARMI ISLA,LORETO,REQUENA,OTROS ACTUALIZAR DISTRITO REQUENA PROVINCIA REQUENA DEPARTAMENTO LORETO,-74.06525768,-5.07027513,1479
149,152,I-1,GALICIA,LORETO,REQUENA,OTROS ACTUALIZAR DISTRITO REQUENA PROVINCIA REQUENA DEPARTAMENTO LORETO,-73.86352813,-5.41868116,1479
150,153,I-1,YUCURUCHI,LORETO,REQUENA,OTROS CASERIO YUCURUCHI DISTRITO SAQUENA PROVINCIA REQUENA DEPARTAMENTO LORETO,-73.90668951,-5.07750238,1485
151,154,I-1,SAPUENA,LORETO,REQUENA,OTROS CASERIO DE SAPUENA CASERIO DE SAPUENA SAQUENA REQUENA LORETO,-73.54695164,-4.65697431,1485
152,155,I-2,BAGAZAN DE SAPUENA,LORETO,REQUENA,OTROS CASERIO DE BAGAZAN DISTRITO SAQUENA PROVINCIA REQUENA DEPARTAMENTO LORETO,-73.53344,-4.725472,1485
153,156,I-1,EL SOL,LORETO,REQUENA,CASERIO EL SOL,-73.54257,-4.62121,1485
154,157,I-1,CURINGA,LORETO,REQUENA,ACTUALIZAR,-73.692549,-6.008346,1486
155,158,I-1,CAPANAHUA,LORETO,REQUENA,ACTUALIZAR,-73.799714,-6.444075,1486
156,159,I-1,SAN PEDRO,LORETO,REQUENA,OTROS ACTUALIZAR DISTRITO TAPICHE PROVINCIA REQUENA DEPARTAMENTO LORETO,-74.04504943,-5.83413999,1487
157,160,I-1,IBERIA,LORETO,REQUENA,OTROS CASERIO DE IBERIA DISTRITO TAPICHE PROVINCIA REQUENA DEPARTAMENTO LORETO,-74.13849198,-5.69352557,1487
158,161,I-4,CENTRO DE SALUD I-3 JUANCITO DE SARAYACU,LORETO,UCAYALI,OTROS ACTUALIZAR DISTRITO SARAYACU PROVINCIA UCAYALI DEPARTAMENTO LORETO,-74.85340813,-6.03194009,1494
159,162,II-1,HOSPITAL II-I  CONTAMANA,LORETO,NO PERTENECE A NINGUNA RED,JIRÓN JR. BUENA VENTURA MARQUEZ N° 504 JR. BUENA VENTURA MARQUEZ N° 504 CONTAMANA UCAYALI LORETO,-75.00736135,-7.34801882,1490
160,163,I-1,PUESTO SALUD I-1 SANTA ROSA CHIA TIPISHCA,LORETO,UCAYALI,OTROS ACTUALIZAR DISTRITO CONTAMANA PROVINCIA UCAYALI DEPARTAMENTO LORETO,-75.0072751,-7.3524114,1490
161,164,I-1,PUESTO DE SALUD I-1 CANAAN,LORETO,UCAYALI,OTROS POBLADO DE CANAAN DISTRITO CONTAMANA PROVINCIA UCAYALI DEPARTAMENTO LORETO,-75.0072751,-7.3524114,1490
162,165,I-1,PUESTO DE SALUD I-1 PROGRESO DE CONTAMANA,LORETO,UCAYALI,OTROS ACTUALIZAR DISTRITO CONTAMANA PROVINCIA UCAYALI DEPARTAMENTO LORETO,-75.03402,-7.5227,1490
163,166,I-1,HOLANDA,LORETO,UCAYALI,OTROS ACTUALIZAR DISTRITO CONTAMANA PROVINCIA UCAYALI DEPARTAMENTO LORETO,-74.98431,-7.57649,1490
164,167,I-1,PUESTO DE SALUD I -1 TUMBES,LORETO,UCAYALI,OTROS ACTUALIZAR DISTRITO CONTAMANA PROVINCIA UCAYALI DEPARTAMENTO LORETO,-74.99149,-7.62903,1490
165,168,I-1,PUESTO DE SALUD I-1 NUEVO EDEN,LORETO,UCAYALI,OTROS ACTUALIZAR DISTRITO CONTAMANA PROVINCIA UCAYALI DEPARTAMENTO LORETO,-75.48205,-7.87177,1490
166,169,I-1,PUESTO DE SALUD I-1 CHARASMANA,LORETO,UCAYALI,OTROS ACTUALIZAR ACTUALIZAR CONTAMANA UCAYALI LORETO,-75.36945,-7.84735,1490
167,170,I-2,PUESTO DE SALUD I-2 INAHUAYA,LORETO,UCAYALI,OTROS ACTUALIZAR DISTRITO INAHUAYA PROVINCIA UCAYALI DEPARTAMENTO LORETO,-75.26500839,-7.11515964,1491
168,171,I-3,CENTRO DE SALUD I-3 TIRUNTAN,LORETO,UCAYALI,OTROS COMUNIDAD DE TIRUNTAN - RIO UCAYALI DISTRITO PADRE MARQUEZ PROVINCIA UCAYALI DEPARTAMENTO LORETO,-74.84089759,-7.94643339,1492
169,172,I-1,ROHABOYA,LORETO,UCAYALI,OTROS ACTUALIZAR DISTRITO PADRE MARQUEZ PROVINCIA UCAYALI DEPARTAMENTO LORETO,-74.92381466,-7.75861331,1492
170,173,I-1,PAHOYAN,LORETO,UCAYALI,OTROS ACTUALIZAR DISTRITO PADRE MARQUEZ PROVINCIA UCAYALI DEPARTAMENTO LORETO,-75.01788447,-7.84771353,1492
171,174,I-1,PUESTO DE SALUD I-1 MARISCAL CASTILLA DE PADRE MARQUEZ,LORETO,UCAYALI,OTROS ACTUALIZAR DISTRITO PADRE MARQUEZ PROVINCIA UCAYALI DEPARTAMENTO LORETO,-74.7861425,-7.99912338,1492
172,175,I-1,PUESTO DE SALUD I-1 ALFONSO UGARTE,LORETO,UCAYALI,OTROS ACTUALIZAR DISTRITO PADRE MARQUEZ PROVINCIA UCAYALI DEPARTAMENTO LORETO,-74.81174535,-7.8327192,1492
173,176,I-3,CENTRO DE SALUD I-3 PAMPA HERMOZA DE PAMPA HERMOZA,LORETO,UCAYALI,OTROS POBLADO DE PAMPA HERMOZA - RIO UCAYALI DISTRITO PAMPA HERMOSA PROVINCIA UCAYALI DEPARTAMENTO LORETO,-75.29771701,-7.2016648,1493
174,177,I-1,LA PEDRERA,LORETO,UCAYALI,OTROS ACTUALIZAR DISTRITO SARAYACU PROVINCIA UCAYALI DEPARTAMENTO LORETO,-74.68518359,-6.00052444,1494
175,178,I-1,MONTE BELLO,LORETO,UCAYALI,OTROS ACTUALIZAR DISTRITO SARAYACU PROVINCIA UCAYALI DEPARTAMENTO LORETO,-75.16775902,-6.16331069,1494
176,179,I-1,PUESTO DE SALUD I-1 MAHUIZO,LORETO,UCAYALI,OTROS ACTUALIZAR DISTRITO SARAYACU PROVINCIA UCAYALI DEPARTAMENTO LORETO,-75.09378641,-6.34495156,1494
177,180,I-1,NUEVO DOS DE MAYO,LORETO,UCAYALI,OTROS ACTUALIZAR DISTRITO SARAYACU PROVINCIA UCAYALI DEPARTAMENTO LORETO,-75.16281342,-6.42155936,1494
178,181,I-1,PUESTO DE SALUD I-1 DOS DE MAYO DE SARAYACU,LORETO,UCAYALI,OTROS ACTUALIZAR DISTRITO SARAYACU PROVINCIA UCAYALI DEPARTAMENTO LORETO,-75.11657718,-6.39411278,1494
179,182,I-3,CENTRO DE ALUD I-3 TIERRA BLANCA,LORETO,UCAYALI,OTROS ACTUALIZAR DISTRITO SARAYACU PROVINCIA UCAYALI DEPARTAMENTO LORETO,-75.17958948,-6.54976828,1494
180,183,I-1,PUESTO DE SALUD I-1 HUAÑUNA,LORETO,UCAYALI,OTROS ACTUALIZAR DISTRITO SARAYACU PROVINCIA UCAYALI DEPARTAMENTO LORETO,-74.71092039,-5.94174287,1494
181,184,I-1,PUESTO DE SALUD I-1 PUERTO ENRIQUE,LORETO,UCAYALI,OTROS ACTUALIZAR DISTRITO SARAYACU PROVINCIA UCAYALI DEPARTAMENTO LORETO,-74.83960591,-5.92262698,1494
182,185,I-4,CENTRO DE SALUD I-4 ORELLANA,LORETO,UCAYALI,OTROS LOCALIDAD DE ORELLANA LOCALIDAD DE ORELLANA VARGAS GUERRA UCAYALI LORETO,-75.15865947,-6.91476797,1495
183,186,I-3,C.S. I-3 SAN GABRIEL DE VARADERO,LORETO,ALTO AMAZONAS,OTROS LOCALIDAD SAN GABRIEL DE VARADERO DISTRITO BALSAPUERTO PROVINCIA ALTO AMAZONAS DEPARTAMENTO LORETO,-73.90534481,-4.5125192,1465
184,187,I-4,C.S.  I-4 BALSAPUERTO,LORETO,ALTO AMAZONAS,OTROS LOCALIDAD BALSAPUERTO LOCALIDAD BALSAPUERTO BALSAPUERTO ALTO AMAZONAS LORETO,-76.55968496,-5.8348331,1465
185,188,I-1,VISTA ALEGRE DE BALSAPUERTO,LORETO,ALTO AMAZONAS,COMUNIDAD VISTA ALEGRE,-76.63920539,-5.67540321,1465
186,189,I-1,P.S. I-1 NUEVA VIDA,LORETO,ALTO AMAZONAS,OTROS COMUNIDAD NUEVA VIDA DISTRITO BALSAPUERTO PROVINCIA ALTO AMAZONAS DEPARTAMENTO LORETO,-76.76252325,-5.49306034,1465
187,190,I-1,P.S. I-1 PROGRESO DE BALSAPUERTO,LORETO,ALTO AMAZONAS,OTROS COMUNIDAD PROGRESO DISTRITO BALSAPUERTO PROVINCIA ALTO AMAZONAS DEPARTAMENTO LORETO,-76.5491232,-5.64917888,1465
188,191,I-3,C.S. I-3 JEBEROS,LORETO,ALTO AMAZONAS,OTROS LOCALIDAD DE JEBEROS LOCALIDAD DE JEBEROS JEBEROS ALTO AMAZONAS LORETO,-76.28408123,-5.29104902,1466
189,192,I-1,P.S. I-1 BELLAVISTA DE JEBEROS,LORETO,ALTO AMAZONAS,OTROS COMUNIDAD BELLAVISTA DISTRITO JEBEROS PROVINCIA ALTO AMAZONAS DEPARTAMENTO LORETO,-76.46456037,-5.30451274,1466
190,193,I-4,C.S. I-4 LAGUNAS,LORETO,ALTO AMAZONAS,OTROS LOCALIDAD LAGUNAS LOCALIDAD LAGUNAS LAGUNAS ALTO AMAZONAS LORETO,-75.67552385,-5.22445921,1467
191,194,I-1,P.S. I-1 PUCACURO DE LAGUNAS,LORETO,ALTO AMAZONAS,OTROS COMUNIDAD PUCACURO DISTRITO LAGUNAS PROVINCIA ALTO AMAZONAS DEPARTAMENTO LORETO,-75.54769293,-5.04728742,1467
192,195,I-1,P.S. I-1 PUERTO VICTORIA,LORETO,ALTO AMAZONAS,OTROS COMUNIDAD PUERTO VICTORIA DISTRITO LAGUNAS PROVINCIA ALTO AMAZONAS DEPARTAMENTO LORETO,-75.59497671,-5.06995253,1467
193,196,I-1,P.S. I-1 ARAHUANTE,LORETO,ALTO AMAZONAS,OTROS COMUNIDAD ARAHUANTE DISTRITO LAGUNAS PROVINCIA ALTO AMAZONAS DEPARTAMENTO LORETO,-75.72586717,-5.31090553,1467
194,197,I-1,P.S. I-1 BARRIO CENTRAL,LORETO,ALTO AMAZONAS,OTROS BARRIO CENTRAL - LAGUNAS DISTRITO LAGUNAS PROVINCIA ALTO AMAZONAS DEPARTAMENTO LORETO,-75.68246704,-5.23916848,1467
195,198,I-1,P.S. I-1 CHARUPA,LORETO,DATEM DEL MARAÑON,OTROS COMUNIDAD CHARUPA DISTRITO LAGUNAS PROVINCIA ALTO AMAZONAS DEPARTAMENTO LORETO,-75.8730797,-5.00064174,1467
196,199,I-1,P.S. I-1 NUEVO MUNDO,LORETO,ALTO AMAZONAS,OTROS COMUNIDAD NUEVO MUNDO DISTRITO LAGUNAS PROVINCIA ALTO AMAZONAS DEPARTAMENTO LORETO,-76.01161012,-4.80634583,1467
197,200,I-1,P.S. I-1 HUANCAYO,LORETO,ALTO AMAZONAS,OTROS COMUNIDAD HUANCAYO DISTRITO LAGUNAS PROVINCIA ALTO AMAZONAS DEPARTAMENTO LORETO,-75.95701303,-4.65673909,1467
198,201,I-1,P.S. I-1 TAMARATE,LORETO,ALTO AMAZONAS,OTROS COMUNIDAD TAMARATE DISTRITO LAGUNAS PROVINCIA ALTO AMAZONAS DEPARTAMENTO LORETO,-75.82048758,-5.31212492,1467
199,202,I-3,C.S. I-3 SANTA CRUZ,LORETO,ALTO AMAZONAS,OTROS LOCALIDAD SANTA CRUZ DISTRITO SANTA CRUZ PROVINCIA ALTO AMAZONAS DEPARTAMENTO LORETO,-75.8606824,-5.51222726,1468
200,204,I-1,P.S. I-1 ACHUAL TIPISCHA,LORETO,ALTO AMAZONAS,OTROS COMUNIDAD ACHUAL TIPISCHA DISTRITO SANTA CRUZ PROVINCIA ALTO AMAZONAS DEPARTAMENTO LORETO,-75.81551015,-5.45207246,1468
201,205,I-1,P.S. I-1 LAGO NARANJAL,LORETO,ALTO AMAZONAS,OTROS COMUNIDAD LAGO NARANJAL DISTRITO SANTA CRUZ PROVINCIA ALTO AMAZONAS DEPARTAMENTO LORETO,-75.87816742,-5.43800419,1468
202,206,I-1,P.S. I-1 JORGE CHAVEZ,LORETO,ALTO AMAZONAS,OTROS COMUNIDAD JORGE CHAVEZ DISTRITO TENIENTE CESAR LOPEZ ROJAS PROVINCIA ALTO AMAZONAS DEPARTAMENTO LORETO,-76.02704287,-6.01569057,1469
203,207,I-1,P.S. I-1 CUIPARI,LORETO,ALTO AMAZONAS,OTROS COMUNIDAD CUIPARI DISTRITO TENIENTE CESAR LOPEZ ROJAS PROVINCIA ALTO AMAZONAS DEPARTAMENTO LORETO,-75.96523941,-5.95467567,1469
204,208,I-1,P.S. I-1 SONAPI,LORETO,ALTO AMAZONAS,OTROS ACTUALIZAR DISTRITO TENIENTE CESAR LOPEZ ROJAS PROVINCIA ALTO AMAZONAS DEPARTAMENTO LORETO,-75.93301535,-5.99701166,1469
205,209,I-3,C.S. I-3 SHUCUSHYACU,LORETO,ALTO AMAZONAS,OTROS LOCALIDAD SHUCUSHYACU DISTRITO TENIENTE CESAR LOPEZ ROJAS PROVINCIA ALTO AMAZONAS DEPARTAMENTO LORETO,-75.87608065,-6.01626018,1469
206,210,II-1,HOSPITAL SANTA GEMA DE  YURIMAGUAS,LORETO,NO PERTENECE A NINGUNA RED,JIRÓN JR. PROGRESO 305 - 307 JR. PROGRESO 305 - 307 YURIMAGUAS ALTO AMAZONAS LORETO,-76.10645167,-5.89353,1464
207,211,I-3,C.S. 1-3 CENTRO ESPEC.MATERNO INFAN.AGUAMIRO,LORETO,ALTO AMAZONAS,CALLE CALLE UCAYALI S/N NÚMERO S/N DISTRITO YURIMAGUAS PROVINCIA ALTO AMAZONAS DEPARTAMENTO LORETO,-76.11304333,-5.88774833,1464
208,212,I-4,C.S. I-4 PAMPA HERMOZA DE YURIMAGUAS,LORETO,ALTO AMAZONAS,OTROS ACTUALIZAR ACTUALIZAR YURIMAGUAS ALTO AMAZONAS LORETO,-76.26957,-6.10275,1464
209,213,I-1,P.S. I-1 PROVIDENCIA DE YURIMAGUAS,LORETO,ALTO AMAZONAS,OTROS COMUNIDAD PROVIDENCIA DISTRITO YURIMAGUAS PROVINCIA ALTO AMAZONAS DEPARTAMENTO LORETO,-76.0103,-5.72589,1464
210,214,I-3,C.S. I-3 SANTA MARÍA,LORETO,ALTO AMAZONAS,OTROS COMUNIDAD DE SANTA MARIA DISTRITO YURIMAGUAS PROVINCIA ALTO AMAZONAS DEPARTAMENTO LORETO,-76.11411,-5.77113,1464
211,215,I-1,P.S. I-1 NUEVA ERA,LORETO,ALTO AMAZONAS,OTROS COMUNIDAD NUEVA ERA DISTRITO YURIMAGUAS PROVINCIA ALTO AMAZONAS DEPARTAMENTO LORETO,-76.21209,-5.7869,1464
212,216,I-1,P.S. I-1 ZAPOTE,LORETO,ALTO AMAZONAS,OTROS COMUNIDAD DE ZAPOTE DISTRITO YURIMAGUAS PROVINCIA ALTO AMAZONAS DEPARTAMENTO LORETO,-76.07033,-5.8988,1464
213,217,I-1,P.S. I-1 LAGO SANANGO,LORETO,ALTO AMAZONAS,OTROS COMUNIDAD LAGO SANANGO DISTRITO YURIMAGUAS PROVINCIA ALTO AMAZONAS DEPARTAMENTO LORETO,-76.06417,-5.94155,1464
214,218,I-1,P.S. I-1 ALTO MOHENA,LORETO,ALTO AMAZONAS,OTROS COMUNIDAD ALTO MOHENA DISTRITO YURIMAGUAS PROVINCIA ALTO AMAZONAS DEPARTAMENTO LORETO,-76.03579,-5.888,1464
215,219,I-1,P.S. I-1 SAN PEDRO DE ZAPOTE,LORETO,ALTO AMAZONAS,OTROS COMUNIDAD SAN PEDRO DE ZAPOTE DISTRITO YURIMAGUAS PROVINCIA ALTO AMAZONAS DEPARTAMENTO LORETO,-76.18504,-5.75685,1464
216,220,I-1,P.S. I-1 JEBERILLOS,LORETO,ALTO AMAZONAS,OTROS COMUNIDAD DE JEBERILLOS DISTRITO YURIMAGUAS PROVINCIA ALTO AMAZONAS DEPARTAMENTO LORETO,-76.23984,-5.73908,1464
217,221,I-1,P.S. I-1 ACHUAL LIMON,LORETO,ALTO AMAZONAS,OTROS COMUNIDAD ACHUAL LIMON DISTRITO YURIMAGUAS PROVINCIA ALTO AMAZONAS DEPARTAMENTO LORETO,-76.207117,-5.870252,1464
218,222,I-3,C.S. I-3 MUNICHIS DE YURIMAGUAS,LORETO,ALTO AMAZONAS,OTROS COMUNIDAD MUNICHIS DISTRITO YURIMAGUAS PROVINCIA ALTO AMAZONAS DEPARTAMENTO LORETO,-76.2308,-5.8925,1464
219,223,I-1,P.S. I-1 VARADERILLO,LORETO,ALTO AMAZONAS,OTROS COMUNIDAD VARADERILLO DISTRITO YURIMAGUAS PROVINCIA ALTO AMAZONAS DEPARTAMENTO LORETO,-76.30996,-5.86912,1464
220,224,I-3,C.S. I-3 LOMA,LORETO,ALTO AMAZONAS,CALLE CALLE COMERCIO 821 - BARRIO LA LOMA DISTRITO YURIMAGUAS PROVINCIA ALTO AMAZONAS DEPARTAMENTO LORETO,-75.90825,-5.69345,1464
221,225,I-1,P.S. I-1 TUPAC AMARU DE YURIMAGUAS,LORETO,ALTO AMAZONAS,OTROS COMUNIDAD TUPAC AMARU DISTRITO YURIMAGUAS PROVINCIA ALTO AMAZONAS DEPARTAMENTO LORETO,-76.11333,-5.98019,1464
222,226,I-1,P.S. I-1 PUERTO PERU,LORETO,ALTO AMAZONAS,OTROS COMUNIDAD PUERTO PERU DISTRITO YURIMAGUAS PROVINCIA ALTO AMAZONAS DEPARTAMENTO LORETO,-76.17695,-6.04629,1464
223,227,I-1,COTOYACU,LORETO,ALTO AMAZONAS,COMUNIDAD COTOYACU,-76.18898,-6.05174,1464
224,228,I-3,C.S. I-3 CARRETERA KM 1.5,LORETO,ALTO AMAZONAS,CARRETERA BARRIO LA CARRETERA - YURIMAGUAS DISTRITO YURIMAGUAS PROVINCIA ALTO AMAZONAS DEPARTAMENTO LORETO,-75.8678,-5.70154,1464
225,229,I-1,P.S. I-1 AA.HH. 30 DE AGOSTO KM. 17,LORETO,ALTO AMAZONAS,OTROS COMUNIDAD  30 DE AGOSTO KM. 17 DISTRITO YURIMAGUAS PROVINCIA ALTO AMAZONAS DEPARTAMENTO LORETO,-76.18056,-5.97216,1464
226,230,I-1,P.S. I-1 SAN JUAN DE PAMPLONA,LORETO,ALTO AMAZONAS,OTROS COMUNIDAD SAN JUAN DE PAMPLONA DISTRITO YURIMAGUAS PROVINCIA ALTO AMAZONAS DEPARTAMENTO LORETO,-76.25779,-6.03655,1464
227,231,I-1,P.S. I-1 SANTO TOMAS DE YURIMAGUAS,LORETO,ALTO AMAZONAS,OTROS COMUNIDAD SAN TOMAS DISTRITO YURIMAGUAS PROVINCIA ALTO AMAZONAS DEPARTAMENTO LORETO,-76.25037,-6.00774,1464
228,232,I-3,C.S. I-3 GRAU KM.40,LORETO,ALTO AMAZONAS,OTROS COMUNIDAD GRAU KM.40 COMUNIDAD GRAU KM.40 YURIMAGUAS ALTO AMAZONAS LORETO,-76.24155,-6.0727,1464
229,234,I-1,P.S. I-1 SAN FRANCISCO PAMPAYACU,LORETO,ALTO AMAZONAS,OTROS COMUNIDAD SAN FRANCISCO PAMPAYACU DISTRITO YURIMAGUAS PROVINCIA ALTO AMAZONAS DEPARTAMENTO LORETO,-76.32845,-6.04066,1464
230,235,I-4,C.S. I-4 SAN LORENZO,LORETO,DATEM DEL MARAÑON,OTROS BARRIO HUACACHINA - SAN LORENZO BARRIO HUACACHINA - SAN LORENZO BARRANCA DATEM DEL MARAÑON LORETO,-76.56119833,-4.82733167,1496
231,236,I-1,P.S. I-1 LIBERTAD DE BARRANCA,LORETO,DATEM DEL MARAÑON,OTROS COMUNIDAD DE BARRANCA DISTRITO BARRANCA PROVINCIA DATEM DEL MARAÑON DEPARTAMENTO LORETO,-76.13539333,-5.00287167,1496
232,237,I-1,P.S. I-1 INDUSTRIAL,LORETO,DATEM DEL MARAÑON,OTROS COMUNIDAD INDUSTRIAL DISTRITO BARRANCA PROVINCIA DATEM DEL MARAÑON DEPARTAMENTO LORETO,-76.39769833,-4.92315,1496
233,238,I-1,P.S. I-1 TIGRE PLAYA,LORETO,DATEM DEL MARAÑON,OTROS COMUNIDAD TIGRE PLAYA DISTRITO BARRANCA PROVINCIA DATEM DEL MARAÑON DEPARTAMENTO LORETO,-76.82301833,-4.81050167,1496
234,239,I-1,P.S. I-1 BUENA VISTA DE BARRANCA,LORETO,DATEM DEL MARAÑON,OTROS COMUNIDAD COPAL DISTRITO BARRANCA PROVINCIA DATEM DEL MARAÑON DEPARTAMENTO LORETO,-77.24982,-5.01436333,1496
235,240,I-2,P.S. I-2 SANTA MARIA DE CAHUAPANAS,LORETO,DATEM DEL MARAÑON,OTROS LOCALIDAD SANTA MARIA DE CAHUAPANAS DISTRITO CAHUAPANAS PROVINCIA DATEM DEL MARAÑON DEPARTAMENTO LORETO,-77.037905,-5.24814667,1497
236,241,I-1,BARRANQUITA DE CAHUAPANAS,LORETO,DATEM DEL MARAÑON,OTROS COMUNIDAD BARRANQUITA DISTRITO CAHUAPANAS PROVINCIA DATEM DEL MARAÑON DEPARTAMENTO LORETO,-76.93876167,-5.12837167,1497
237,242,I-1,SAN MIGUEL,LORETO,DATEM DEL MARAÑON,OTROS COMUNIDAD SAN MIGUEL DISTRITO CAHUAPANAS PROVINCIA DATEM DEL MARAÑON DEPARTAMENTO LORETO,-76.79266167,-5.358285,1497
238,243,I-1,PALMICHE,LORETO,DATEM DEL MARAÑON,OTROS COMUNIDAD PALMICHE DISTRITO CAHUAPANAS PROVINCIA DATEM DEL MARAÑON DEPARTAMENTO LORETO,-76.78570833,-5.24569333,1497
239,244,I-1,KAUPAN,LORETO,DATEM DEL MARAÑON,OTROS COMUNIDAD KAUPAN DISTRITO CAHUAPANAS PROVINCIA DATEM DEL MARAÑON DEPARTAMENTO LORETO,-76.98625167,-5.28720167,1497
240,245,I-1,P.S. I-1 SAN ANTONIO DE CAHUAPANAS,LORETO,DATEM DEL MARAÑON,OTROS COMUNIDAD SAN ANTONIO DISTRITO CAHUAPANAS PROVINCIA DATEM DEL MARAÑON DEPARTAMENTO LORETO,-76.51454167,-4.907215,1497
241,246,I-3,C.S. I-3 SARAMIRIZA,LORETO,DATEM DEL MARAÑON,OTROS LOCALIDAD SARAMIRIZA LOCALIDAD SARAMIRIZA MANSERICHE DATEM DEL MARAÑON LORETO,-77.42026667,-4.56787667,1498
242,247,I-1,BORJA,LORETO,DATEM DEL MARAÑON,OTROS COMUNIDAD BORJA DISTRITO MANSERICHE PROVINCIA DATEM DEL MARAÑON DEPARTAMENTO LORETO,-77.53982167,-4.47032333,1498
243,248,I-1,FELIX FLORES,LORETO,DATEM DEL MARAÑON,OTROS COMUNIDAD FELIX FLORES DISTRITO MANSERICHE PROVINCIA DATEM DEL MARAÑON DEPARTAMENTO LORETO,-77.50508833,-4.64201167,1498
244,249,I-2,SACHA PAPA,LORETO,DATEM DEL MARAÑON,OTROS COMUNIDAD SACHAPAPA DISTRITO MANSERICHE PROVINCIA DATEM DEL MARAÑON DEPARTAMENTO LORETO,-77.57221333,-4.76698667,1498
245,250,I-2,ATAHUALPA,LORETO,DATEM DEL MARAÑON,OTROS LOCALIDAD ATAHUALPA DISTRITO MANSERICHE PROVINCIA DATEM DEL MARAÑON DEPARTAMENTO LORETO,-77.48569,-4.85160667,1498
246,251,I-2,P.S. I-2 PUERTO AMERICA,LORETO,DATEM DEL MARAÑON,OTROS LOCALIDAD PUERTO AMERICA DISTRITO MORONA PROVINCIA DATEM DEL MARAÑON DEPARTAMENTO LORETO,-77.06246167,-4.72936,1499
247,252,I-1,PUERTO ALEGRIA DE MORONA,LORETO,DATEM DEL MARAÑON,OTROS COMUNIDAD PUERTO ALEGRIA DISTRITO MORONA PROVINCIA DATEM DEL MARAÑON DEPARTAMENTO LORETO,-77.216575,-4.322785,1499
248,253,I-1,PIJUAYAL,LORETO,DATEM DEL MARAÑON,OTROS COMUNIDAD PIJUAYAL DISTRITO MORONA PROVINCIA DATEM DEL MARAÑON DEPARTAMENTO LORETO,-77.16676,-3.86974667,1499
249,254,I-1,CABALLITO,LORETO,DATEM DEL MARAÑON,OTROS COMUNIDAD CABALLITO DISTRITO MORONA PROVINCIA DATEM DEL MARAÑON DEPARTAMENTO LORETO,-77.286745,-3.84343,1499
250,255,I-1,SAN JUAN DEL MORONA,LORETO,DATEM DEL MARAÑON,OTROS COMUNIDAD SAN JUAN DISTRITO MORONA PROVINCIA DATEM DEL MARAÑON DEPARTAMENTO LORETO,-77.64501333,-3.053295,1499
251,256,I-1,PANINTZA,LORETO,DATEM DEL MARAÑON,OTROS COMUNIDAD PANINTZA DISTRITO MORONA PROVINCIA DATEM DEL MARAÑON DEPARTAMENTO LORETO,-77.45123167,-3.05380667,1499
252,257,I-1,SHINGUITO,LORETO,DATEM DEL MARAÑON,OTROS COMUNIDAD SHINGUITO DISTRITO MORONA PROVINCIA DATEM DEL MARAÑON DEPARTAMENTO LORETO,-77.54559333,-3.49988333,1499
253,258,I-4,NUEVO ANDOAS,LORETO,DATEM DEL MARAÑON,OTROS COMUNIDAD NUEVO ANDOAS DISTRITO ANDOAS PROVINCIA DATEM DEL MARAÑON DEPARTAMENTO LORETO,-76.46119667,-2.80377333,1501
254,259,I-1,ANDOAS VIEJO,LORETO,DATEM DEL MARAÑON,OTROS COMUNIDAD ANDOAS VIEJO DISTRITO ANDOAS PROVINCIA DATEM DEL MARAÑON DEPARTAMENTO LORETO,-76.40109167,-2.90582667,1501
255,260,I-2,P.S. I-2 ALIANZA CRISTIANA,LORETO,DATEM DEL MARAÑON,OTROS COMUNIDAD ALIANZA CRISTIANA DISTRITO ANDOAS PROVINCIA DATEM DEL MARAÑON DEPARTAMENTO LORETO,-76.43263333,-3.47511333,1501
256,261,I-2,P.S. I-2 MUSAKARUSHA,LORETO,DATEM DEL MARAÑON,OTROS COMUNIDAD MUSAKARUSHA DISTRITO PASTAZA PROVINCIA DATEM DEL MARAÑON DEPARTAMENTO LORETO,-76.65709167,-4.44992333,1500
257,262,I-2,P.S. I-2 CHUINTAR,LORETO,DATEM DEL MARAÑON,OTROS COMUNIDAD CHUINTAR DISTRITO PASTAZA PROVINCIA DATEM DEL MARAÑON DEPARTAMENTO LORETO,-76.56082333,-4.82837167,1500
258,263,I-1,SABALOYACU,LORETO,DATEM DEL MARAÑON,OTROS COMUNIDAD SABALOYACU DISTRITO ANDOAS PROVINCIA DATEM DEL MARAÑON DEPARTAMENTO LORETO,-76.33297,-3.30452167,1501
259,264,I-2,P.S. I-2 LOBOYACU,LORETO,DATEM DEL MARAÑON,OTROS COMUNIDAD LOBOYACU DISTRITO ANDOAS PROVINCIA DATEM DEL MARAÑON DEPARTAMENTO LORETO,-76.35855333,-3.66712667,1501
260,265,I-1,WASHIENTZA,LORETO,DATEM DEL MARAÑON,OTROS COMUNIDAD WASHIENTZA DISTRITO ANDOAS PROVINCIA DATEM DEL MARAÑON DEPARTAMENTO LORETO,-76.56989667,-3.33481667,1501
261,266,I-1,NUEVO PROGRESO - HUITOYACU,LORETO,DATEM DEL MARAÑON,OTROS COMUNIDAD NUEVO PROGRESO DISTRITO PASTAZA PROVINCIA DATEM DEL MARAÑON DEPARTAMENTO LORETO,-76.65293833,-4.07195167,1500
262,267,I-2,NUEVA YARINA,LORETO,DATEM DEL MARAÑON,OTROS COMUNIDAD NUEVA YARINA DISTRITO PASTAZA PROVINCIA DATEM DEL MARAÑON DEPARTAMENTO LORETO,-76.930675,-4.25238,1500
263,268,I-3,C.S. I-3 ULLPAYACU,LORETO,DATEM DEL MARAÑON,OTROS LOCALIDAD ULLPAYACU DISTRITO PASTAZA PROVINCIA DATEM DEL MARAÑON DEPARTAMENTO LORETO,-76.58828333,-4.65086,1500
264,269,I-1,UWIJINT,LORETO,DATEM DEL MARAÑON,OTROS COMUNIDAD UWIJINT DISTRITO PASTAZA PROVINCIA DATEM DEL MARAÑON DEPARTAMENTO LORETO,-77.06634833,-3.20218,1500
265,270,I-1,SAN JOSE DE LUPUNA,LORETO,MAYNAS CIUDAD,CASERIO DE SAN JOSE DE LUPUNA,,,1453
266,271,I-2,IPRESS I-2 MASUSA,LORETO,MAYNAS CIUDAD,OTROS ACTUALIZAR DISTRITO PUNCHANA PROVINCIA MAYNAS DEPARTAMENTO LORETO,-73.24022526,-3.72076562,1460
267,272,I-1,CENTRO FUERTE,LORETO,MAYNAS CIUDAD,CASERIO DE CENTRO FUERTE,-73.31953,-3.64591,1460
268,273,I-1,SAN ANTONIO DE PINTUYACU,LORETO,MAYNAS CIUDAD,OTROS CASERIO DE SAN ANTONIO DE PINTUYACU DISTRITO ALTO NANAY PROVINCIA MAYNAS DEPARTAMENTO LORETO,-73.77877598,-3.7051237,1454
269,275,I-3,ACLAS BELEN DE VILLA BELEN,LORETO,MAYNAS CIUDAD,OTROS BLASCO NUÑEZ Nº27 DISTRITO BELEN PROVINCIA MAYNAS DEPARTAMENTO LORETO,-73.24462,-3.76456,1462
270,276,I-1,P.S. I-1 GALLITO,LORETO,MAYNAS CIUDAD,OTROS CASERIO DE GALLITO SIN NUMERO CASERIO DE GALLITO SIN NUMERO IQUITOS MAYNAS LORETO,-73.15581129,-3.82700466,1453
271,277,I-1,SERAFIN FILOMENO,LORETO,MAYNAS PERIFERIE,ACTUALIZAR,-72.938042,-4.160308,1455
272,278,I-1,BUENAS LOMAS,LORETO,MAYNAS PERIFERIE,ACTUALIZAR,-73.369781,-5.994991,1489
273,279,I-1,HUAMAN URCO,LORETO,MAYNAS PERIFERIE,OTROS CASERIO HUAMAN URCO DISTRITO MAZAN PROVINCIA MAYNAS DEPARTAMENTO LORETO,-73.21798481,-3.3185727,1458
274,280,I-1,MANGUA DEL MAZAN,LORETO,MAYNAS PERIFERIE,OTROS CASERIO MANGUA DISTRITO MAZAN PROVINCIA MAYNAS DEPARTAMENTO LORETO,-72.77567216,-3.31988154,1458
275,281,I-1,SAN FRANCISCO DE BUEN PASO,LORETO,MAYNAS PERIFERIE,OTROS CASERIO DE SAN FRANCISCO DE BUEN PASO DISTRITO MAZAN PROVINCIA MAYNAS DEPARTAMENTO LORETO,-73.18490474,-3.24609083,1458
276,282,I-1,LIBERTAD - RIO MAZAN,LORETO,MAYNAS PERIFERIE,OTROS CASERIO LIBERTAD DISTRITO MAZAN PROVINCIA MAYNAS DEPARTAMENTO LORETO,-73.23431136,-3.4968648,1458
277,283,I-1,SAN LUIS DE TACSHA CURARAY,LORETO,MAYNAS PERIFERIE,OTROS ACTUALIZAR DISTRITO NAPO PROVINCIA MAYNAS DEPARTAMENTO LORETO,-73.54347531,-2.80396801,1459
278,284,I-1,RUMI TUMI,LORETO,MAYNAS PERIFERIE,OTROS ACTUALIZAR ACTUALIZAR NAPO MAYNAS LORETO,-74.43656951,-2.05350304,1459
279,285,I-1,P.S. I-1 SAN RAFAEL,LORETO,MAYNAS PERIFERIE,OTROS ACTUALIZAR ACTUALIZAR NAPO MAYNAS LORETO,-74.11151048,-2.3637788,1459
280,286,I-1,P.S. I-1 BUENA VISTA DEL NAPO,LORETO,MAYNAS PERIFERIE,OTROS ACTUALIZAR DISTRITO NAPO PROVINCIA MAYNAS DEPARTAMENTO LORETO,-74.87136702,-2.12144486,1459
281,287,I-1,ANGUSILLA,LORETO,MAYNAS PERIFERIE,OTROS CASERIO DE ANGUSILLA CASERIO DE ANGUSILLA TENIENTE MANUEL CLAVERO PUTUMAYO LORETO,-74.31077991,-0.9001377,1504
282,288,I-2,SAN JOSE DE SARAMURO,LORETO,LORETO,OTROS ACTUALIZAR ACTUALIZAR URARINAS LORETO LORETO,-74.9290061,-4.71467454,1474
283,289,I-1,PIURA,LORETO,LORETO,OTROS ACTUALIZAR ACTUALIZAR TIGRE LORETO LORETO,-74.412362,-4.115927,1472
284,290,I-1,SAN ANTONIO - BAJO AMAZONAS,LORETO,RAMON CASTILLA,OTROS P.S. I-1 SAN ANTONIO - BAJO AMAZONAS DISTRITO SAN PABLO PROVINCIA MARISCAL RAMON CASTILLA DEPARTAMENTO LORETO,-71.57541167,-3.80849333,1478
285,291,I-3,SANTA ROSA DE RAMON CASTILLA,LORETO,RAMON CASTILLA,OTROS COMUNIDAD FRONTERIZA SANTA ROSA RIO AMAZONAS COMUNIDAD FRONTERIZA SANTA ROSA RIO AMAZONAS YAVARI MARISCAL RAMON CASTILLA LORETO,-69.95587232,-4.22660218,1477
286,292,I-1,PUERTO ALEGRIA DE RAMON CASTILLA,LORETO,RAMON CASTILLA,OTROS ACTUALIZAR DISTRITO RAMON CASTILLA PROVINCIA MARISCAL RAMON CASTILLA DEPARTAMENTO LORETO,-70.05475167,-4.113405,1475
287,293,I-1,CAROCURAHUAYTE,LORETO,REQUENA,OTROS ACTUALIZAR DISTRITO REQUENA PROVINCIA REQUENA DEPARTAMENTO LORETO,-74.0510211,-5.11813488,1479
288,294,I-1,PUESTO DE SALUD I-1 SAN PABLO DE SINUYA,LORETO,UCAYALI,OTROS ACTUALIZAR DISTRITO CONTAMANA PROVINCIA UCAYALI DEPARTAMENTO LORETO,,,1490
289,295,I-1,PUESTO DE SALUD I-1 SANTA ROSA DEL PISQUI,LORETO,UCAYALI,OTROS ACTUALIZAR DISTRITO CONTAMANA PROVINCIA UCAYALI DEPARTAMENTO LORETO,-75.0072751,-7.3524114,1490
290,296,I-1,MIGUEL GRAU,LORETO,UCAYALI,OTROS ACTUALIZAR DISTRITO SARAYACU PROVINCIA UCAYALI DEPARTAMENTO LORETO,-75.06725053,-6.59800571,1494
291,297,I-1,PUESTO DE SALUD I-1 SAMAN,LORETO,UCAYALI,OTROS ACTUALIZAR DISTRITO SARAYACU PROVINCIA UCAYALI DEPARTAMENTO LORETO,-75.04252315,-6.13741372,1494
292,298,I-1,PUESTO DE SALUD ALTO PERILLO I-1,LORETO,UCAYALI,OTROS ACTUALIZAR DISTRITO PAMPA HERMOSA PROVINCIA UCAYALI DEPARTAMENTO LORETO,-75.15303124,-7.0820125,1493
293,299,I-1,P.S. I-1 PARINARI,LORETO,ALTO AMAZONAS,OTROS COMUNIDAD PARINARI DISTRITO TENIENTE CESAR LOPEZ ROJAS PROVINCIA ALTO AMAZONAS DEPARTAMENTO LORETO,-75.8072412,-6.09001458,1469
294,300,I-1,P.S. I-1 LIBERTAD DE CUIPARILLO,LORETO,ALTO AMAZONAS,OTROS COMUNIDAD LIBERTAD CUIPARILLO DISTRITO TENIENTE CESAR LOPEZ ROJAS PROVINCIA ALTO AMAZONAS DEPARTAMENTO LORETO,-76.00031734,-5.92457056,1469
295,301,I-1,P.S. I-1 GLORIA,LORETO,ALTO AMAZONAS,OTROS COMUNIDAD GLORIA DISTRITO TENIENTE CESAR LOPEZ ROJAS PROVINCIA ALTO AMAZONAS DEPARTAMENTO LORETO,-75.95055699,-5.89200854,1469
296,302,I-1,P.S. I-1 PANAM,LORETO,ALTO AMAZONAS,OTROS COMUNIDAD DE PANAM DISTRITO BALSAPUERTO PROVINCIA ALTO AMAZONAS DEPARTAMENTO LORETO,-76.53637046,-5.64486036,1465
297,303,I-1,P.S. 1-2 NUEVO ARICA DE BALSAPUERTO,LORETO,ALTO AMAZONAS,OTROS COMUNIDAD NUEVA ARICA COMUNIDAD NUEVA ARICA BALSAPUERTO ALTO AMAZONAS LORETO,-76.42812177,-5.91195791,1465
298,304,I-1,P.S. I-1 CENTRO AMERICA,LORETO,ALTO AMAZONAS,OTROS COMUNIDAD CENTRO AMERICA DISTRITO BALSAPUERTO PROVINCIA ALTO AMAZONAS DEPARTAMENTO LORETO,-76.35155891,-5.78946005,1465
299,305,I-1,SAN JUAN DEL MARAÑON,LORETO,DATEM DEL MARAÑON,OTROS COMUNIDAD SAN JUAN DEL MARAÑON DISTRITO MANSERICHE PROVINCIA DATEM DEL MARAÑON DEPARTAMENTO LORETO,-77.24847333,-4.72001667,1498
300,307,I-1,TZEKUNZA,LORETO,DATEM DEL MARAÑON,OTROS COMUNIDAD TZEKUNZA DISTRITO ANDOAS PROVINCIA DATEM DEL MARAÑON DEPARTAMENTO LORETO,-76.765905,-3.04561833,1501
301,308,II-2,HOSPITAL REGIONAL DOCENTE DE MEDICINA TROPICAL DR. JULIO CESAR DEMARINI CARO,JUNIN,CHANCHAMAYO,AVENIDA AV. DANIEL A. CARRION S/N AAVV PAMPA DEL CARMEN S/N AV. DANIEL A. CARRION S/N AAVV PAMPA DEL CARMEN CHANCHAMAYO CHANCHAMAYO JUNIN,-75.33759,-11.07388333,1079
302,310,I-1,VILLA DORADA,JUNIN,CHANCHAMAYO,"AVENIDA AV, 21 COLONOS DISTRITO CHANCHAMAYO PROVINCIA CHANCHAMAYO DEPARTAMENTO JUNIN",-75.24038833,-11.04145667,1079
303,311,I-2,VILLA PROGRESO,JUNIN,CHANCHAMAYO,OTROS CENTRO POBLADO VILLA PROGRESO DISTRITO CHANCHAMAYO PROVINCIA CHANCHAMAYO DEPARTAMENTO JUNIN,-75.28245167,-10.95355667,1079
304,312,I-1,PUEBLO PARDO,JUNIN,CHANCHAMAYO,JIRÓN JR. PROGRESO S/N PUEBLO PARDO NÚMERO S/N DISTRITO CHANCHAMAYO PROVINCIA CHANCHAMAYO DEPARTAMENTO JUNIN,-75.29805833,-10.94412667,1079
305,314,I-3,SAN LUIS DE SHUARO,JUNIN,CHANCHAMAYO,JIRÓN JR. PROGRESO S/N SAN LUIS DE SHUARO S/N JR. PROGRESO S/N SAN LUIS DE SHUARO SAN LUIS DE SHUARO CHANCHAMAYO JUNIN,-75.288345,-10.88827,1082
306,315,I-3,SANCHIRIO PALOMAR,JUNIN,CHANCHAMAYO,OTROS CENTRO POBLADO SANCHIRIO PALOMAR DISTRITO SAN LUIS DE SHUARO PROVINCIA CHANCHAMAYO DEPARTAMENTO JUNIN,-75.21567,-10.81566833,1082
307,316,I-1,SANTA HERMINIA BAJA,JUNIN,CHANCHAMAYO,PLAZA PLAZA DEL ANEXO SANTA HERMINIA BAJA DISTRITO SAN LUIS DE SHUARO PROVINCIA CHANCHAMAYO DEPARTAMENTO JUNIN,-75.23218667,-10.77007833,1082
308,317,I-1,RAYMONDI,JUNIN,CHANCHAMAYO,OTROS CENTRO POBLADO RAYMONDI DISTRITO ULCUMAYO PROVINCIA JUNIN DEPARTAMENTO JUNIN,-75.130285,-10.82113333,1122
309,318,I-4,VILLA PERENE,JUNIN,CHANCHAMAYO,JIRÓN JR UCAYALI MZ K SEGUNDA MESETA JR UCAYALI MZ K SEGUNDA MESETA PERENE CHANCHAMAYO JUNIN,-75.22715,-10.946735,1080
310,319,I-2,BAJO MARANKIARI,JUNIN,CHANCHAMAYO,CALLE CALLE LIMA S/N ANEXO MARANKIARI NÚMERO S/N DISTRITO PERENE PROVINCIA CHANCHAMAYO DEPARTAMENTO JUNIN,-75.20039333,-10.93992667,1080
311,320,I-3,PUERTO YURINAKI,JUNIN,CHANCHAMAYO,CALLE CALLE LOS INCAS S/N LA COSTADO DE LA MUNICIPALIDAD S/N CALLE LOS INCAS S/N LA COSTADO DE LA MUNICIPALIDAD PERENE CHANCHAMAYO JUNIN,-75.08276,-10.86827833,1080
312,321,I-2,ALTO YURINAKI,JUNIN,CHANCHAMAYO,PLAZA PLAZA DEL ANEXO ALTO YURINAKI DISTRITO PERENE PROVINCIA CHANCHAMAYO DEPARTAMENTO JUNIN,-75.15193333,-10.76959833,1080
313,322,I-1,LIBERTAD TOTERANI,JUNIN,CHANCHAMAYO,PLAZA PLAZA DEL ANEXO LA LIBERTAD TOTERANI DISTRITO PERENE PROVINCIA CHANCHAMAYO DEPARTAMENTO JUNIN,-75.10626167,-10.90645333,1080
314,323,I-1,INCHATINGARI,JUNIN,CHANCHAMAYO,PLAZA PLAZA DEL ANEXO INCHATINGARI DISTRITO PERENE PROVINCIA CHANCHAMAYO DEPARTAMENTO JUNIN,-74.989035,-10.831885,1080
315,324,I-2,LOS ANGELES DE UBIRIKI,JUNIN,CHANCHAMAYO,CALLE CALLE LOS FUNDADORES S/N DEL ANEXO LOS ANGELES DE UBIRIKI NÚMERO S/N DISTRITO PERENE PROVINCIA CHANCHAMAYO DEPARTAMENTO JUNIN,-74.9991,-10.80893667,1080
316,325,I-2,CENTRO POBLADO MENOR LA FLORIDA,JUNIN,CHANCHAMAYO,AVENIDA AV. 28 DE JULIO DEL CENTRO POBLADO MENOR LA FLORIDA DISTRITO PERENE PROVINCIA CHANCHAMAYO DEPARTAMENTO JUNIN,-75.12575667,-10.81926167,1080
317,326,I-1,SANTA ROSA DE RIO AMARILLO,JUNIN,CHANCHAMAYO,CALLE CALLE Nº 4 ANEXO RIO AMARILLO DISTRITO PERENE PROVINCIA CHANCHAMAYO DEPARTAMENTO JUNIN,-75.026565,-10.98518833,1080
318,327,I-1,ALTO PUMPURIANI,JUNIN,CHANCHAMAYO,CARRETERA CARRETERA DE PENETRACION DEL ANEXO ALTO PUMPURIANI DISTRITO PERENE PROVINCIA CHANCHAMAYO DEPARTAMENTO JUNIN,-75.04257,-10.91375833,1080
319,328,I-1,CHURINGAVENI,JUNIN,CHANCHAMAYO,PLAZA PLAZA DE LA COMUNIDAD NATIVA CHURINGAVENI DISTRITO PERENE PROVINCIA CHANCHAMAYO DEPARTAMENTO JUNIN,-74.95902167,-10.88100333,1080
320,329,I-1,HUACAMAYO,JUNIN,CHANCHAMAYO,PLAZA PLAZA DEL ANEXO HUACAMAYO DISTRITO PERENE PROVINCIA CHANCHAMAYO DEPARTAMENTO JUNIN,-74.919515,-10.86938,1080
321,330,I-3,SAN FERNANDO DE KIVINAKI,JUNIN,CHANCHAMAYO,CALLE CALLE R.CASTILLA S/N DEL ANEXO SAN FERNANDO DE KIVINAKI NÚMERO S/N DISTRITO PERENE PROVINCIA CHANCHAMAYO DEPARTAMENTO JUNIN,-74.94644,-10.88015,1080
322,331,I-1,LOS ANGELES TOTERANI,JUNIN,CHANCHAMAYO,PLAZA PLAZA DEL ANEXO LOS ANGELES TOTERANI DISTRITO PERENE PROVINCIA CHANCHAMAYO DEPARTAMENTO JUNIN,-75.09240333,-10.93434,1080
323,332,I-1,ALTO SAN JUAN,JUNIN,CHANCHAMAYO,PLAZA PLAZA DEL ANEXO ALTO SAN JUAN DISTRITO PERENE PROVINCIA CHANCHAMAYO DEPARTAMENTO JUNIN,-75.04391333,-10.93249833,1080
324,333,I-1,CENTRO TOTERANI,JUNIN,CHANCHAMAYO,CARRETERA CARRETERA DE PENETRACION DEL ANEXO CENTRO TOTERANI DISTRITO PERENE PROVINCIA CHANCHAMAYO DEPARTAMENTO JUNIN,-75.12006833,-10.93983,1080
325,334,I-1,SANTA ROSA DE CAMONASHARI,JUNIN,CHANCHAMAYO,OTROS ANEXO SANTA ROSA DE CAMONASHARI ANEXO SANTA ROSA DE CAMONASHARI PERENE CHANCHAMAYO JUNIN,-74.95636667,-10.78247167,1080
326,335,I-1,ZONA PATRIA,JUNIN,CHANCHAMAYO,CARRETERA CARRETERA DE PENETRACION AL ANEXO ZONA PATRIA DISTRITO PERENE PROVINCIA CHANCHAMAYO DEPARTAMENTO JUNIN,-75.16377,-10.89069167,1080
327,336,I-1,ALTO YAPAZ,JUNIN,CHANCHAMAYO,PLAZA PLAZA DEL ANEXO ALTO YAPAZ DISTRITO SAN LUIS DE SHUARO PROVINCIA CHANCHAMAYO DEPARTAMENTO JUNIN,-75.18371667,-10.86341333,1082
328,337,I-2,MIRISHARO,JUNIN,PICHANAKI,CARRETERA CARRETERA PRICNCIPAL S/N MIRISHARO NÚMERO S/N DISTRITO PERENE PROVINCIA CHANCHAMAYO DEPARTAMENTO JUNIN,-74.99714609,-11.02048746,1080
329,338,I-1,SAN CRISTOBAL,JUNIN,PICHANAKI,PLAZA PLAZA DE ARMAS S/N SAN CRISTOBAL NÚMERO S/N DISTRITO PERENE PROVINCIA CHANCHAMAYO DEPARTAMENTO JUNIN,-74.91045647,-10.93598704,1080
330,339,I-1,SAN ANTONIO ALTO PICHANAKI,JUNIN,PICHANAKI,OTROS COMUNIDAD DE ALTO PICHANAKI DISTRITO PERENE PROVINCIA CHANCHAMAYO DEPARTAMENTO JUNIN,-74.97441971,-10.98359208,1080
331,340,II-1,HOSPITAL DE APOYO PICHANAKI,JUNIN,PICHANAKI,AVENIDA AV. SAN MARTIN S/N PICHANAKI S/N AV. SAN MARTIN S/N PICHANAKI PICHANAQUI CHANCHAMAYO JUNIN,-74.87183837,-10.92571391,1081
332,341,I-2,IMPITATO CASCADA,JUNIN,PICHANAKI,CALLE PERENE S/N,-74.67513099,-11.00910881,1081
333,342,I-2,PRIMAVERA,JUNIN,PICHANAKI,AVENIDA AV. CIRCUNVALACION S/N NÚMERO S/N DISTRITO PICHANAQUI PROVINCIA CHANCHAMAYO DEPARTAMENTO JUNIN,-74.8828178,-11.0071837,1081
334,343,I-3,CENTRO CUYANI,JUNIN,PICHANAKI,JIRÓN JIRON LOS JARDINES S/N S/N JIRON LOS JARDINES S/N PICHANAQUI CHANCHAMAYO JUNIN,-74.93988905,-10.99203258,1081
335,344,I-3,LAS PALMAS,JUNIN,PICHANAKI,AVENIDA AV. 28 DE JULIO S/N S/N AV. 28 DE JULIO S/N PICHANAQUI CHANCHAMAYO JUNIN,-74.75391229,-11.04073684,1081
336,345,I-2,PAMPA CAMONA,JUNIN,PICHANAKI,OTROS MZ J - PAMPA CAMONA DISTRITO PICHANAQUI PROVINCIA CHANCHAMAYO DEPARTAMENTO JUNIN,-74.84310179,-11.0383413,1081
337,346,I-2,HUANTININI,JUNIN,PICHANAKI,CARRETERA CARRETERA DE PENETRACION DEL ANEXO DE HUANTININI DISTRITO PICHANAQUI PROVINCIA CHANCHAMAYO DEPARTAMENTO JUNIN,-74.76167398,-10.9331812,1081
338,347,I-2,CONDADO PICHIKIARI,JUNIN,PICHANAKI,PLAZA PRINCIPAL DEL CENTRO POBLADO DE CONDADO PICHIKIARI S/N PLAZA PRINCIPAL DEL CENTRO POBLADO DE CONDADO PICHIKIARI PICHANAQUI CHANCHAMAYO JUNIN,-74.9878218,-11.02012773,1081
339,348,I-2,SAN JUAN CENTRO AUTIKI,JUNIN,PICHANAKI,OTROS LOTE Nº 1 MZ P - CP. SAN JUAN CENTRO AUTIQUI DISTRITO PICHANAQUI PROVINCIA CHANCHAMAYO DEPARTAMENTO JUNIN,-74.81196374,-10.86810408,1081
340,349,I-2,BELEN ANAPIARI,JUNIN,PICHANAKI,PLAZA PLAZA PRINCIPAL DE BELEN ANAMPIARI S/N PLAZA PRINCIPAL DE BELEN ANAMPIARI PICHANAQUI CHANCHAMAYO JUNIN,-74.73579739,-10.90348426,1081
341,350,I-2,VALLE HERMOSO,JUNIN,PICHANAKI,PLAZA PLAZA PRINCIPAL DEL CENTRO POBLADO DE VALLE HERMOSO DISTRITO PICHANAQUI PROVINCIA CHANCHAMAYO DEPARTAMENTO JUNIN,-74.88174667,-11.09302,1081
342,351,I-3,HUACHIRIKI,JUNIN,PICHANAKI,CARRETERA CARRETERA DE PENETRACION DEL ANEXO CENTRO HUACHIRIKI CARRETERA DE PENETRACION DEL ANEXO CENTRO HUACHIRIKI PICHANAQUI CHANCHAMAYO JUNIN,-74.82649965,-10.90186898,1081
343,352,I-2,UNION SHIMASHIRO,JUNIN,PICHANAKI,OTROS CENTRO POBLADO MENOR UNION SHIMASHIRO DISTRITO PICHANAQUI PROVINCIA CHANCHAMAYO DEPARTAMENTO JUNIN,-74.79548104,-11.06311843,1081
344,353,I-1,ANDRES AVELINO CACERES,JUNIN,PICHANAKI,OTROS CENTRO POBLADO MENOR ANDRES AVELINO CACERES S/N CENTRO POBLADO MENOR ANDRES AVELINO CACERES PICHANAQUI CHANCHAMAYO JUNIN,-74.93425524,-11.03933564,1081
345,354,I-4,SAN RAMON,JUNIN,CHANCHAMAYO,JIRÓN JR. CHANCHAMAYO Nº 291 JR. CHANCHAMAYO Nº 291 SAN RAMON CHANCHAMAYO JUNIN,-75.35392222,-11.1193113,1083
346,355,I-2,NARANJAL,JUNIN,CHANCHAMAYO,"AVENIDA AV. LAM FRANCO MZ S, LOT 6 DISTRITO SAN RAMON PROVINCIA CHANCHAMAYO DEPARTAMENTO JUNIN",-75.39882298,-11.14174383,1083
347,356,I-2,LA ESPERANZA,JUNIN,CHANCHAMAYO,PLAZA PLAZA PRINCIPAL DEL ANEXO LA ESPERANZA DISTRITO SAN RAMON PROVINCIA CHANCHAMAYO DEPARTAMENTO JUNIN,-75.33594962,-11.18110548,1083
348,357,I-1,PEDREGAL,JUNIN,CHANCHAMAYO,CARRETERA CARRETERA MARGINAL S/N CONSTADO CONTROL POLICIAL EL PEDREGAL NÚMERO S/N DISTRITO SAN RAMON PROVINCIA CHANCHAMAYO DEPARTAMENTO JUNIN,-75.38524454,-11.1354681,1083
349,358,I-2,VITOC,JUNIN,CHANCHAMAYO,CALLE CALLE CENTENARIO S/N PLAZA PRINCIPAL NÚMERO S/N DISTRITO VITOC PROVINCIA CHANCHAMAYO DEPARTAMENTO JUNIN,-75.33439618,-11.21014809,1084
350,359,I-1,VISCATAN,JUNIN,CHANCHAMAYO,PLAZA PLAZA PRINCIPAL DEL ANEXO  VISCATAN DISTRITO VITOC PROVINCIA CHANCHAMAYO DEPARTAMENTO JUNIN,-75.33875292,-11.25666439,1084
351,360,I-1,UTCUYACU,JUNIN,CHANCHAMAYO,OTROS POBLADO MENOR UTCUYACU DISTRITO VITOC PROVINCIA CHANCHAMAYO DEPARTAMENTO JUNIN,-75.32774167,-11.29414667,1084
352,361,I-1,UCHUBAMBA,JUNIN,CHANCHAMAYO,PLAZA PLAZA PRINCIPAL DEL ANEXO UCHUBAMBA DISTRITO MASMA PROVINCIA JAUJA DEPARTAMENTO JUNIN,-75.25303833,-11.45286691,1100
353,362,I-2,MONOBAMBA,JUNIN,CHANCHAMAYO,OTROS BARRIO SANTA ROSA S/N NÚMERO S/N DISTRITO MONOBAMBA PROVINCIA JAUJA DEPARTAMENTO JUNIN,-75.32344091,-11.35656464,1103
354,363,I-1,CHACAYBAMBA,JUNIN,CHANCHAMAYO,PLAZA PLAZA PRINCIPAL DEL ANEXO CHACAYBAMBA DISTRITO MONOBAMBA PROVINCIA JAUJA DEPARTAMENTO JUNIN,-75.2865384,-11.37998087,1103
355,365,II-1,HOSPITAL DOMINGO OLAVEGOYA,JUNIN,JAUJA,JIRÓN JR. SAN MARTIN Nº1153 URBANIZACION OLAVEGOYA DISTRITO JAUJA PROVINCIA JAUJA DEPARTAMENTO JUNIN,-75.4968676,-11.77722745,1085
356,367,I-1,ATAURA,JUNIN,JAUJA,PASAJE JOSEFINA CASTRO NÚMERO S/N DISTRITO ATAURA PROVINCIA JAUJA DEPARTAMENTO JUNIN,-75.43714667,-11.804925,1088
357,368,I-1,HUERTAS,JUNIN,JAUJA,AVENIDA AV. MAQUINHUAYOS S/N - BARRIO NÚMERO S/N DISTRITO HUERTAS PROVINCIA JAUJA DEPARTAMENTO JUNIN,-75.475435,-11.76517333,1094
358,369,I-2,PACA,JUNIN,JAUJA,JIRÓN JIRON  GRAU S/N - ALAMEDA NÚMERO S/N DISTRITO PACA PROVINCIA JAUJA DEPARTAMENTO JUNIN,-75.51544667,-11.70830667,1106
359,370,I-1,CANCHAPUNCO,JUNIN,JAUJA,CALLE CALLE SAN MARTIN S/N I CUARTEL NÚMERO S/N DISTRITO PACCHA PROVINCIA JAUJA DEPARTAMENTO JUNIN,-75.54103333,-11.81937833,1107
360,371,I-1,PACCHA MIRAFLORES,JUNIN,JAUJA,CALLE CALLE SANCHEZ CERRO S/N BARRIO SEGUNDO NÚMERO S/N DISTRITO PACCHA PROVINCIA JAUJA DEPARTAMENTO JUNIN,-75.50811,-11.852015,1107
361,372,I-1,MASAJCANCHA,JUNIN,JAUJA,CALLE CALLE REAL S/N NÚMERO S/N DISTRITO PACCHA PROVINCIA JAUJA DEPARTAMENTO JUNIN,-75.49219167,-11.85254167,1107
362,373,I-1,PATACANCHA,JUNIN,JAUJA,CALLE CALLE ICA S/N NÚMERO S/N DISTRITO PACCHA PROVINCIA JAUJA DEPARTAMENTO JUNIN,-75.506375,-11.89539333,1107
363,374,I-2,PARCO,JUNIN,JAUJA,AVENIDA AV. MANTARO S/N CARRETERA CENTRAL NÚMERO S/N DISTRITO PARCO PROVINCIA JAUJA DEPARTAMENTO JUNIN,-75.54595479,-11.79897539,1109
364,375,I-1,ULLUSCA,JUNIN,JAUJA,CARRETERA CARRETERA CENTRAL KM 47 S/N NÚMERO S/N DISTRITO PARCO PROVINCIA JAUJA DEPARTAMENTO JUNIN,-75.50801448,-11.8193837,1109
365,376,I-1,SAUSA,JUNIN,JAUJA,AVENIDA AV. HUAYNA CAPAC Nº 102 - II CUARTEL DISTRITO SAUSA PROVINCIA JAUJA DEPARTAMENTO JUNIN,-75.48581667,-11.79032167,1114
366,377,I-3,YAUYOS,JUNIN,JAUJA,JIRÓN 20 DE ENERO NÚMERO 108 DISTRITO YAUYOS PROVINCIA JAUJA DEPARTAMENTO JUNIN,-75.49974833,-11.780745,1118
367,378,I-1,HUANCAS,JUNIN,JAUJA,AVENIDA AV. LOS INCAS S/N - BARRIO VELLAVISTA HUANCAS NÚMERO S/N DISTRITO YAUYOS PROVINCIA JAUJA DEPARTAMENTO JUNIN,-75.512105,-11.795425,1118
368,379,I-3,ACOLLA,JUNIN,JAUJA,AVENIDA AV.HUASCAR S/N CUADRA 13 - PRIMER CUARTEL NÚMERO S/N DISTRITO ACOLLA PROVINCIA JAUJA DEPARTAMENTO JUNIN,-75.54313271,-11.73497566,1086
369,380,I-2,EL TINGO,JUNIN,JAUJA,PLAZA PLAZA PRINCIPAL EL TINGO DISTRITO ACOLLA PROVINCIA JAUJA DEPARTAMENTO JUNIN,-75.58305849,-11.64254538,1086
370,381,I-1,SACAS,JUNIN,JAUJA,PLAZA PLAZA PRINCIPAL SACAS DISTRITO ACOLLA PROVINCIA JAUJA DEPARTAMENTO JUNIN,-75.56781052,-11.61509319,1086
371,382,I-2,YANAMARCA,JUNIN,JAUJA,PLAZA PLAZA PRINCIPAL YANAMARCA DISTRITO ACOLLA PROVINCIA JAUJA DEPARTAMENTO JUNIN,-75.56657575,-11.68854644,1086
372,383,I-2,PACHASCUCHO,JUNIN,JAUJA,CALLE CALLE JUNIN S/N NÚMERO S/N DISTRITO ACOLLA PROVINCIA JAUJA DEPARTAMENTO JUNIN,-75.54282764,-11.73490219,1086
373,384,I-2,TINGO PACCHA,JUNIN,JAUJA,CARRETERA CARRETERA CENTRAL S/N NÚMERO S/N DISTRITO ACOLLA PROVINCIA JAUJA DEPARTAMENTO JUNIN,-75.59283579,-11.64922217,1086
374,385,I-2,MARCO,JUNIN,JAUJA,JIRÓN JR. RAMON CASTILLA S/N NÚMERO S/N DISTRITO MARCO PROVINCIA JAUJA DEPARTAMENTO JUNIN,-75.56299761,-11.74039479,1099
375,386,I-1,YANACANCHA,JUNIN,JAUJA,PLAZA PLAZA PRINCIPAL YANACANCHA DISTRITO PACA PROVINCIA JAUJA DEPARTAMENTO JUNIN,-75.55393994,-11.63969963,1106
376,388,I-2,POMACANCHA,JUNIN,JAUJA,JIRÓN JR. TARMA S/N NÚMERO S/N DISTRITO POMACANCHA PROVINCIA JAUJA DEPARTAMENTO JUNIN,-75.62481095,-11.7391139,1110
377,389,I-1,ARMONIA,JUNIN,JAUJA,PLAZA PLAZA PRINCIPAL ARMONIA DISTRITO POMACANCHA PROVINCIA JAUJA DEPARTAMENTO JUNIN,-75.6481111,-11.70342278,1110
378,390,I-1,CASABLANCA,JUNIN,JAUJA,PLAZA PLAZA PRINCIPAL DISTRITO POMACANCHA PROVINCIA JAUJA DEPARTAMENTO JUNIN,-75.6443879,-11.66275533,1110
379,391,I-1,TUNANMARCA,JUNIN,JAUJA,JIRÓN JR. LOS CIPRECES S/N NÚMERO S/N DISTRITO TUNAN MARCA PROVINCIA JAUJA DEPARTAMENTO JUNIN,-75.56921462,-11.72412149,1116
380,393,I-2,JULCAN,JUNIN,JAUJA,JIRÓN JR. JUNIN S/N BARRIO HUAIRANGA NÚMERO S/N DISTRITO JULCAN PROVINCIA JAUJA DEPARTAMENTO JUNIN,-75.43679589,-11.76145508,1096
381,394,I-3,MASMA,JUNIN,JAUJA,CALLE CALLE LA VICTORIA  S/N - CUARTEL PRIMERO NÚMERO S/N DISTRITO MASMA PROVINCIA JAUJA DEPARTAMENTO JUNIN,-75.42607538,-11.78696708,1100
382,395,I-1,MASMA CHICCHE,JUNIN,JAUJA,OTROS BARRIO LA LIBERTAD DISTRITO MASMA CHICCHE PROVINCIA JAUJA DEPARTAMENTO JUNIN,-75.38103618,-11.78595781,1101
383,397,I-2,MOLINOS,JUNIN,JAUJA,CALLE BOLIVAR NÚMERO 603 DISTRITO MOLINOS PROVINCIA JAUJA DEPARTAMENTO JUNIN,-75.44569365,-11.73712683,1102
384,398,I-1,QUERO,JUNIN,JAUJA,OTROS VALLE 9 DE SETIEMBRE - BARRIO SEGUNDO DISTRITO MOLINOS PROVINCIA JAUJA DEPARTAMENTO JUNIN,-75.37801989,-11.71036111,1102
385,399,I-2,CURIMARCA,JUNIN,JAUJA,PLAZA PLAZA CENTRAL CURIMARCA DISTRITO MOLINOS PROVINCIA JAUJA DEPARTAMENTO JUNIN,-75.33492699,-11.57758374,1102
386,400,I-1,HUARIPAMPA,JUNIN,JAUJA,JIRÓN JR. AMARGURA S/N 4TA CUADRA CARRETERA CENTRAL NÚMERO S/N DISTRITO HUARIPAMPA PROVINCIA JAUJA DEPARTAMENTO JUNIN,-75.47141168,-11.80885607,1093
387,401,I-1,HUANCANI,JUNIN,JAUJA,JIRÓN ESQUINA JR PUNO . SAN MARTIN S/N NÚMERO S/N DISTRITO LEONOR ORDOÑEZ PROVINCIA JAUJA DEPARTAMENTO JUNIN,-75.41439576,-11.86460368,1097
388,402,I-1,MUQUI,JUNIN,JAUJA,CALLE CALLE SANTA ROSA S/N NÚMERO S/N DISTRITO MUQUI PROVINCIA JAUJA DEPARTAMENTO JUNIN,-75.43533413,-11.8333434,1104
389,403,I-2,MUQUIYAUYO,JUNIN,JAUJA,JIRÓN JR. ASEQUIA ALTA Nº 800 DISTRITO MUQUIYAUYO PROVINCIA JAUJA DEPARTAMENTO JUNIN,-75.45526799,-11.81712599,1105
390,404,I-3,SINCOS,JUNIN,JAUJA,JIRÓN JR. LOS ANDES S/N NÚMERO S/N DISTRITO SINCOS PROVINCIA JAUJA DEPARTAMENTO JUNIN,-75.39420667,-11.88702167,1115
391,405,I-1,LLACUARIPAMPA,JUNIN,JAUJA,JIRÓN JR. ALFONZO UGARTE Nº 116 DISTRITO SINCOS PROVINCIA JAUJA DEPARTAMENTO JUNIN,-75.45058833,-11.89566,1115
392,406,I-2,ARAMACHAY,JUNIN,JAUJA,AVENIDA AV. HUANCAYO Nº 298 DISTRITO SINCOS PROVINCIA JAUJA DEPARTAMENTO JUNIN,-75.41417333,-11.91626167,1115
393,407,I-1,SALLAHUACHAC,JUNIN,JAUJA,OTROS SEGUNDO BARRIO DISTRITO SINCOS PROVINCIA JAUJA DEPARTAMENTO JUNIN,-75.53310833,-11.93692833,1115
394,408,I-1,CHALHUAS,JUNIN,JAUJA,PLAZA PLAZA PRINCIPAL DE CHALHUAS DISTRITO SINCOS PROVINCIA JAUJA DEPARTAMENTO JUNIN,-75.550035,-11.9648,1115
395,409,I-3,APATA,JUNIN,JAUJA,JIRÓN JR. LIBERTAD S/N BARRIO PARIAHUANCA NÚMERO S/N DISTRITO APATA PROVINCIA JAUJA DEPARTAMENTO JUNIN,-75.35867401,-11.85450789,1087
396,410,I-1,NUEVA ESPERANZA,JUNIN,JAUJA,AVENIDA AV.LOS LIBERTADORES Nº 441 DISTRITO APATA PROVINCIA JAUJA DEPARTAMENTO JUNIN,-75.32437636,-11.83116684,1087
397,411,I-1,SAN JOSE DE APATA,JUNIN,JAUJA,PLAZA PRIMER BARRIO -PLAZA PRINCIPAL DISTRITO APATA PROVINCIA JAUJA DEPARTAMENTO JUNIN,-75.32513676,-11.79871626,1087
398,412,I-1,CHICCHE,JUNIN,JAUJA,OTROS SEGUNDO BARRIO CHINCHE DISTRITO APATA PROVINCIA JAUJA DEPARTAMENTO JUNIN,-75.30033476,-11.82041344,1087
399,413,I-1,PAUCAR APATA,JUNIN,JAUJA,PLAZA BARRIO CENTRO - PLAZA PRINCIPAL DISTRITO APATA PROVINCIA JAUJA DEPARTAMENTO JUNIN,-75.36688275,-11.83342421,1087
400,414,I-1,EL MANTARO,JUNIN,JAUJA,AVENIDA AV. 28 DE JULIO S/N  BARRIO CHUAPIMARCA NÚMERO S/N DISTRITO EL MANTARO PROVINCIA JAUJA DEPARTAMENTO JUNIN,-75.38937349,-11.82793905,1091
401,415,I-2,HUAMALI,JUNIN,JAUJA,JIRÓN JR. JUNIN S/N NÚMERO S/N DISTRITO HUAMALI PROVINCIA JAUJA DEPARTAMENTO JUNIN,-75.42471138,-11.80673357,1092
402,416,I-1,SAN LORENZO,JUNIN,JAUJA,CARRETERA CARRETERA CENTRAL S/N BARRIO CENTRO NÚMERO S/N DISTRITO SAN LORENZO PROVINCIA JAUJA DEPARTAMENTO JUNIN,-75.38335947,-11.84965782,1112
403,417,I-1,PANCAN,JUNIN,JAUJA,JIRÓN JR. LAS CANTUTAS S/N NÚMERO S/N DISTRITO PANCAN PROVINCIA JAUJA DEPARTAMENTO JUNIN,-75.48562942,-11.74893712,1108
404,418,I-1,HUASQUICHA,JUNIN,JAUJA,PLAZA PLAZA PRINCIPAL DE HUASQUICHA S/N NÚMERO S/N DISTRITO PANCAN PROVINCIA JAUJA DEPARTAMENTO JUNIN,-75.48541066,-11.75491088,1108
405,419,I-2,RICRAN,JUNIN,JAUJA,CALLE CALLE ATAHUALPA S/N -BARRIO SAN MARTIN NÚMERO S/N DISTRITO RICRAN PROVINCIA JAUJA DEPARTAMENTO JUNIN,-75.52399167,-11.54456833,1111
406,421,I-1,APAYCANCHA,JUNIN,JAUJA,PLAZA PLAZA PRINCIPAL DE APAYCANCHA  S/N NÚMERO S/N DISTRITO RICRAN PROVINCIA JAUJA DEPARTAMENTO JUNIN,-75.56169167,-11.54681,1111
407,422,I-1,SAN PEDRO DE CHUNAN,JUNIN,JAUJA,JIRÓN JR. SAN MARTIN S/N NÚMERO S/N DISTRITO SAN PEDRO DE CHUNAN PROVINCIA JAUJA DEPARTAMENTO JUNIN,-75.4870601,-11.72575803,1113
408,423,I-2,YAULI - JAUJA,JUNIN,JAUJA,AVENIDA AV. DANIEL ALCIDES CARRION S/N - BARRIO SUJUCHUPAN NÚMERO S/N DISTRITO YAULI PROVINCIA JAUJA DEPARTAMENTO JUNIN,-75.47370209,-11.72307744,1117
409,424,I-2,CANCHAYLLO,JUNIN,JAUJA,JIRÓN JR. BOLOGNESI S/N NÚMERO S/N DISTRITO CANCHAYLLO PROVINCIA JAUJA DEPARTAMENTO JUNIN,-75.71678777,-11.80232582,1089
410,425,I-2,EL ROSARIO,JUNIN,JAUJA,AVENIDA AV. SAN RAMON CASTILLA S/N BARRIO SN FRANCISCO NÚMERO S/N DISTRITO CURICACA PROVINCIA JAUJA DEPARTAMENTO JUNIN,-75.71716572,-11.76319363,1090
411,426,I-2,JANJAILLO,JUNIN,JAUJA,AVENIDA AV. 12 DE OCTUBRE S/N BARRIO BUENOS AIRES NÚMERO S/N DISTRITO JANJAILLO PROVINCIA JAUJA DEPARTAMENTO JUNIN,-75.60917279,-11.76558597,1095
412,427,I-3,LLOCLLAPAMPA,JUNIN,JAUJA,CARRETERA CARRETERA CENTRAL ANTIGUA KM 55 S/N NÚMERO S/N DISTRITO LLOCLLAPAMPA PROVINCIA JAUJA DEPARTAMENTO JUNIN,-75.61966996,-11.81648113,1098
413,428,I-1,MATACHICO,JUNIN,JAUJA,PLAZA PLAZA PRINCIPAL Nº 751 DISTRITO LLOCLLAPAMPA PROVINCIA JAUJA DEPARTAMENTO JUNIN,-75.5901473,-11.79767995,1098
414,429,I-1,CHACAPALPA,JUNIN,JAUJA,CALLE CALLE TARMA S/N NÚMERO S/N DISTRITO CHACAPALPA PROVINCIA YAULI DEPARTAMENTO JUNIN,-75.75581143,-11.7294441,1142
415,430,I-2,HUAYHUAY,JUNIN,JAUJA,CALLE CALLE HUANCAYO S/N S/N CALLE HUANCAYO S/N HUAY HUAY YAULI JUNIN,-75.90207807,-11.72060257,1143
416,431,I-2,SUITUCANCHA,JUNIN,JAUJA,CALLE CALLE LOS ANDES S/N NÚMERO S/N DISTRITO SUITUCANCHA PROVINCIA YAULI DEPARTAMENTO JUNIN,-75.93782265,-11.78909577,1149
417,432,II-1,DE APOYO MANUEL HIGA ARAKAKI,JUNIN,SATIPO,CALLE CALLE DANIEL ALCIDES CARRION Nº 398 CALLE DANIEL ALCIDES CARRION Nº 398 SATIPO SATIPO JUNIN,-74.6386,-11.24928,1123
418,433,I-1,BELEN,JUNIN,SATIPO,CALLE CALLE BOLIVAR NZ M BELEN DISTRITO LLAYLLA PROVINCIA SATIPO DEPARTAMENTO JUNIN,-74.55808353,-11.38959099,1125
419,434,I-4,MAZAMARI,JUNIN,SATIPO,AVENIDA AV. LA CULTURA  S/N S/N AV. LA CULTURA  S/N MAZAMARI SATIPO JUNIN,-74.52919206,-11.32432961,1126
420,435,I-2,CAPIRUSHARI,JUNIN,SATIPO,AVENIDA AV. CAPIRUSHARI S/N - CENTRO POBLADO NÚMERO S/N DISTRITO MAZAMARI PROVINCIA SATIPO DEPARTAMENTO JUNIN,-74.54495199,-11.29194159,1126
421,436,I-2,PUEBLO LIBRE DE PAURIALI,JUNIN,SATIPO,OTROS COMUNIDAD DE PAURELI DISTRITO MAZAMARI PROVINCIA SATIPO DEPARTAMENTO JUNIN,-74.57765692,-11.33662108,1126
422,437,I-2,COMUNIDAD NATIVA DE PANGA,JUNIN,SATIPO,OTROS COMUNIDAD NATIVA DE PANGA DISTRITO MAZAMARI PROVINCIA SATIPO DEPARTAMENTO JUNIN,-74.43273629,-11.23291273,1126
423,438,I-3,TZIRIARI,JUNIN,SATIPO,OTROS COMUNIDAD NATIVA DE TZIRIARI DISTRITO PANGOA PROVINCIA SATIPO DEPARTAMENTO JUNIN,-74.43207523,-11.29066764,1128
424,439,I-1,SAN CRISTOBAL,JUNIN,SATIPO,OTROS COMUNIDAD DE SAN CRISTOBAL DISTRITO PANGOA PROVINCIA SATIPO DEPARTAMENTO JUNIN,-74.52850568,-11.33506598,1128
425,440,I-1,SAN JOSE DE MIRAFLORES,JUNIN,SAN MARTIN DE PANGOA,OTROS CENTRO POBLADO SAN JOSE DE MIRAFLORES DISTRITO PANGOA PROVINCIA SATIPO DEPARTAMENTO JUNIN,-74.47921897,-11.37524731,1128
426,442,II-1,SAN MARTIN DE PANGOA,JUNIN,SAN MARTIN DE PANGOA,AVENIDA AV. PANGOA S/N ESQUINA CON AV. ESPAÑA S/N AV. PANGOA S/N ESQUINA CON AV. ESPAÑA PANGOA SATIPO JUNIN,-74.49077226,-11.42780367,1128
427,443,I-3,SAN RAMON DE PANGOA,JUNIN,SAN MARTIN DE PANGOA,CALLE ESQUINA FRAY CANTELA Y CALLE INDUSTRIAL S/N S/N ESQUINA FRAY CANTELA Y CALLE INDUSTRIAL S/N PANGOA SATIPO JUNIN,-74.48193093,-11.43036274,1128
428,444,I-2,CHAVINI,JUNIN,SAN MARTIN DE PANGOA,AVENIDA AV.COLONOS FUNDADORES S/N C.P.CHAVINI NÚMERO S/N DISTRITO PANGOA PROVINCIA SATIPO DEPARTAMENTO JUNIN,-74.49272234,-11.40608247,1128
429,445,I-3,SAN ANTONIO DE SONOMORO,JUNIN,SAN MARTIN DE PANGOA,OTROS CC.NN SAN ANTONIO DE SONOMORO CC.NN SAN ANTONIO DE SONOMORO PANGOA SATIPO JUNIN,-74.43860448,-11.44696475,1128
430,446,I-3,CUBANTIA,JUNIN,SAN MARTIN DE PANGOA,OTROS CC.NN CUBANTIA S/N S/N CC.NN CUBANTIA S/N PANGOA SATIPO JUNIN,-74.4082305,-11.57839954,1128
431,447,I-2,VILLA MARIA,JUNIN,SAN MARTIN DE PANGOA,OTROS CENTRO POBLADO VILLA MARIA S/N NÚMERO S/N DISTRITO PANGOA PROVINCIA SATIPO DEPARTAMENTO JUNIN,-74.48824446,-11.48206665,1128
432,448,I-2,NAYLAM DE SONOMORO,JUNIN,SAN MARTIN DE PANGOA,OTROS CENTRO POBLADO MAYLAM DE SONOMORO S/N NÚMERO S/N DISTRITO PANGOA PROVINCIA SATIPO DEPARTAMENTO JUNIN,-74.4375046,-11.4517342,1128
433,449,I-1,MAZARONQUIARI,JUNIN,SAN MARTIN DE PANGOA,OTROS COMUNIDAD NATIVA MAZORONQUIARI DISTRITO PANGOA PROVINCIA SATIPO DEPARTAMENTO JUNIN,-74.36877636,-11.64951817,1128
434,450,I-1,ALTO KIATARI,JUNIN,SAN MARTIN DE PANGOA,"AVENIDA AV.NARANJAL MZ D, LOTE 11 DISTRITO PANGOA PROVINCIA SATIPO DEPARTAMENTO JUNIN",-74.46052334,-11.50044913,1128
435,451,I-2,MATERENI,JUNIN,SAN MARTIN DE PANGOA,AVENIDA AV. AVIACION S/N - CC.NN. MATARENI N?ERO S/N DISTRITO PANGOA PROVINCIA SATIPO DEPARTAMENTO JUNIN,-74.21697789,-11.79671891,1128
436,452,I-2,FORTALEZA,JUNIN,SAN MARTIN DE PANGOA,AVENIDA AV. PAMPA S/N CARRETERA PRINCIPAL NÚMERO S/N DISTRITO PANGOA PROVINCIA SATIPO DEPARTAMENTO JUNIN,-74.46331823,-11.52275635,1128
437,453,I-1,UNION CHAVINI,JUNIN,SAN MARTIN DE PANGOA,PLAZA PLAZA PRINCIPAL S/N UNION CHAVINI NÚMERO S/N DISTRITO PANGOA PROVINCIA SATIPO DEPARTAMENTO JUNIN,-74.53715573,-11.44448051,1128
438,454,I-1,CAMPIRUSHARI,JUNIN,SAN MARTIN DE PANGOA,AVENIDA AV.PANGOA S/N CARRETERA PRINCIPAL NÚMERO S/N DISTRITO PANGOA PROVINCIA SATIPO DEPARTAMENTO JUNIN,-74.42832324,-11.55815375,1128
439,455,I-1,JERUSALEN DE MIÑARO DE NOMESTSIGUENGA,JUNIN,SAN MARTIN DE PANGOA,OTROS COMUNIDAD DE JERUSALEN DE MIÑARO DISTRITO PANGOA PROVINCIA SATIPO DEPARTAMENTO JUNIN,-74.37989612,-11.57364863,1128
440,456,I-1,SANTA ROSA ALTO KIATARI,JUNIN,SAN MARTIN DE PANGOA,OTROS CENTRO POBLADO SANTA ROSA ALTO KIATARI S/N NÚMERO S/N DISTRITO PANGOA PROVINCIA SATIPO DEPARTAMENTO JUNIN,-74.50528139,-11.5302041,1128
441,457,I-2,BOCA KIATARI,JUNIN,SAN MARTIN DE PANGOA,OTROS CENTRO POBLADO BOCA KIATARI S/N NÚMERO S/N DISTRITO PANGOA PROVINCIA SATIPO DEPARTAMENTO JUNIN,-74.43354148,-11.52866509,1128
442,458,I-1,VILCABAMBA,JUNIN,SAN MARTIN DE PANGOA,AVENIDA AV.PANGOA SECTOR PATEAMAYO-ANEXO VILCABAMBA DISTRITO PANGOA PROVINCIA SATIPO DEPARTAMENTO JUNIN,-74.52104776,-11.49362772,1128
443,459,I-1,CUSHIRENI,JUNIN,SATIPO,OTROS COMUNIDAD NATIVA CUSHIRENI DISTRITO RIO TAMBO PROVINCIA SATIPO DEPARTAMENTO JUNIN,-73.70748107,-11.19639258,1130
444,460,I-3,BETANIA,JUNIN,SATIPO,OTROS COMUNIDAD NATIVA BETANIA DISTRITO RIO TAMBO PROVINCIA SATIPO DEPARTAMENTO JUNIN,-73.75060284,-11.05198391,1130
445,461,I-1,SHEVOJA,JUNIN,SATIPO,OTROS CC.NN. SHEVOJA DISTRITO RIO TAMBO PROVINCIA SATIPO DEPARTAMENTO JUNIN,-73.73635422,-11.03465238,1130
446,462,I-3,POYENI,JUNIN,SATIPO,OTROS COMUNIDAD NATIVA POYENI DISTRITO RIO TAMBO PROVINCIA SATIPO DEPARTAMENTO JUNIN,-73.66857105,-11.25795462,1130
447,463,I-2,BOCA CHEMBO,JUNIN,SATIPO,OTROS COMUNIDAD NATIVA BOCA CHEMBO DISTRITO RIO TAMBO PROVINCIA SATIPO DEPARTAMENTO JUNIN,-73.71334253,-10.86247461,1130
448,464,I-1,IMPANEKIARI,JUNIN,SATIPO,OTROS COMUNIDAD NAIVA IMPANEKIARI DISTRITO RIO TAMBO PROVINCIA SATIPO DEPARTAMENTO JUNIN,-73.74168464,-10.84983234,1130
449,465,I-2,CAPITIRI,JUNIN,SATIPO,OTROS COMUNIDAD NATIVA CAPITIRI DISTRITO RIO TAMBO PROVINCIA SATIPO DEPARTAMENTO JUNIN,-73.71834752,-11.09865723,1130
450,466,I-1,SANTA ROSITA DE SHIRINTIARI,JUNIN,SATIPO,OTROS COMUNIDAD NATIVA DE SANTA ROSITA DE SHIRINTIARI DISTRITO RIO TAMBO PROVINCIA SATIPO DEPARTAMENTO JUNIN,-73.727997,-10.90906692,1130
451,467,I-2,SHIMA,JUNIN,SATIPO,OTROS CENTRO POBLADO VILLA JUNIN DISTRITO RIO TAMBO PROVINCIA SATIPO DEPARTAMENTO JUNIN,-73.75454793,-10.74256088,1130
452,468,I-1,MICAELA BASTIDAS MORALES,JUNIN,SATIPO,OTROS ANEXO MICAELA BASTIDAS MORALES DISTRITO PANGOA PROVINCIA SATIPO DEPARTAMENTO JUNIN,-73.95817958,-11.85893086,1128
453,469,I-3,PUERTO OCOPA,JUNIN,SATIPO,JIRÓN ESQUINA JR. AETERNITATIS 3RA CUADRA CC.NN.PUERTO OCOPA DISTRITO RIO TAMBO PROVINCIA SATIPO DEPARTAMENTO JUNIN,-74.30734969,-11.14687109,1130
454,470,I-2,SAN MIGUEL DE OTICA,JUNIN,SATIPO,OTROS CC.NN. SAN MIGUEL DE OTICA DISTRITO RIO TAMBO PROVINCIA SATIPO DEPARTAMENTO JUNIN,-73.91731666,-11.21169042,1130
455,471,I-2,CUTIVIRENI,JUNIN,SATIPO,OTROS CC.NN. CUTIVIRENI DISTRITO RIO TAMBO PROVINCIA SATIPO DEPARTAMENTO JUNIN,-73.90830404,-11.87348224,1130
456,472,I-2,OVIRI,JUNIN,SATIPO,OTROS COMUNIDAD NATIVA OVIRI DISTRITO RIO TAMBO PROVINCIA SATIPO DEPARTAMENTO JUNIN,-73.82061407,-11.26038025,1130
457,473,I-3,SAN VICENTE DE CANAAN,JUNIN,SATIPO,OTROS CENTRO POBLADO CANAEDEN DISTRITO RIO TAMBO PROVINCIA SATIPO DEPARTAMENTO JUNIN,-74.26644211,-11.08282082,1130
458,474,I-2,QUITENI,JUNIN,SATIPO,OTROS COMUNIDAD NATIVA QUITENI DISTRITO RIO TAMBO PROVINCIA SATIPO DEPARTAMENTO JUNIN,-74.01833889,-11.67288084,1130
459,475,I-1,CAPERUSIA,JUNIN,SATIPO,OTROS COMUNIDAD NATIVA CAPERUSIA DISTRITO RIO TAMBO PROVINCIA SATIPO DEPARTAMENTO JUNIN,-74.16286455,-11.30378879,1130
460,477,I-2,HUAHUARI,JUNIN,SATIPO,OTROS COMUNIDAD HUAHUARI NÚMERO S/N DISTRITO RIO NEGRO PROVINCIA SATIPO DEPARTAMENTO JUNIN,-74.8087158,-11.17010811,1129
461,478,I-2,RIO VENADO,JUNIN,SATIPO,OTROS COMUNIDAD RIO VENADO DISTRITO SATIPO PROVINCIA SATIPO DEPARTAMENTO JUNIN,-74.75911016,-11.21200874,1123
462,479,I-2,SANTO DGO DE MARANKIARI,JUNIN,SATIPO,CARRETERA CARRETERA PRINCIPAL S/N STO DOMINGO DE MARANKIARI NÚMERO S/N DISTRITO SATIPO PROVINCIA SATIPO DEPARTAMENTO JUNIN,-74.55484553,-11.17018193,1123
463,480,I-1,BAJO CAPIRO,JUNIN,SATIPO,OTROS CENTRO POBLADO MENOR BAJO CAPIRO DISTRITO SATIPO PROVINCIA SATIPO DEPARTAMENTO JUNIN,-74.7273373,-11.26690841,1123
464,481,I-2,PARATUSHALI,JUNIN,SATIPO,OTROS COMUNIDAD PARATUSHALI DISTRITO SATIPO PROVINCIA SATIPO DEPARTAMENTO JUNIN,-74.69963474,-11.29080632,1123
465,482,I-2,HUANTASHIRI,JUNIN,SATIPO,OTROS COMUNIDAD NATIVA HUANTASHIRI NÚMERO S/N DISTRITO SATIPO PROVINCIA SATIPO DEPARTAMENTO JUNIN,-74.5222707,-11.20731511,1123
466,483,I-2,SANIBENI,JUNIN,SATIPO,OTROS CENTRO POBLADO SANIBENI DISTRITO SATIPO PROVINCIA SATIPO DEPARTAMENTO JUNIN,-74.57199301,-11.25678319,1123
467,484,I-1,ALTO PAURELI,JUNIN,SATIPO,OTROS CENTRO POBLADO DE ALTO PAURELI NÚMERO S/N DISTRITO SATIPO PROVINCIA SATIPO DEPARTAMENTO JUNIN,-74.58572719,-11.11972456,1123
468,485,I-3,COVIRIALI,JUNIN,SATIPO,PLAZA PLAZA PRINCIPAL S/N - CENTRO POBLADO COVIRIALI S/N PLAZA PRINCIPAL S/N - CENTRO POBLADO COVIRIALI COVIRIALI SATIPO JUNIN,-74.62767412,-11.2906802,1124
469,486,I-2,SAN PEDRO,JUNIN,SATIPO,OTROS COMUNIDAD SAN PEDRO COMUNIDAD SAN PEDRO COVIRIALI SATIPO JUNIN,-74.69620281,-11.30583717,1124
470,487,I-1,SANTA MARIA,JUNIN,SATIPO,OTROS COMUNIDAD SANTA MARIA  DE COVIRIALI NÚMERO S/N DISTRITO COVIRIALI PROVINCIA SATIPO DEPARTAMENTO JUNIN,-74.65794761,-11.30534196,1124
471,488,I-1,SAN ANDRES,JUNIN,SATIPO,OTROS COMUNIDAD SAN ANDRES DISTRITO COVIRIALI PROVINCIA SATIPO DEPARTAMENTO JUNIN,-74.68829714,-11.32923244,1124
472,489,I-1,BUENOS AIRES,JUNIN,SATIPO,OTROS ANEXO SAN MARTIN -BUENOS AIRES - COVIRIALI DISTRITO COVIRIALI PROVINCIA SATIPO DEPARTAMENTO JUNIN,-74.62811765,-11.33773205,1124
473,490,I-3,LLAYLLA,JUNIN,SATIPO,"CALLE CALLE JUNIN MZ C, LOTE 10 DISTRITO LLAYLLA PROVINCIA SATIPO DEPARTAMENTO JUNIN",-74.58957123,-11.38057094,1125
474,491,I-2,HERMOSA PAMPA,JUNIN,SATIPO,JIRÓN JR. EL CONVENIO S/N  CP.HERMOSA PAMPA NÚMERO S/N DISTRITO LLAYLLA PROVINCIA SATIPO DEPARTAMENTO JUNIN,-74.59778802,-11.40287338,1125
475,492,I-2,SANTA ROSITA,JUNIN,SATIPO,CARRETERA CARRETERA ANTIGUA SATIPO - HYO - STA ROSITA DISTRITO PAMPA HERMOSA PROVINCIA SATIPO DEPARTAMENTO JUNIN,-74.73265514,-11.33432702,1127
476,493,I-2,MARIPOSA,JUNIN,SATIPO,OTROS CERCADO MARIPOSA DISTRITO PAMPA HERMOSA PROVINCIA SATIPO DEPARTAMENTO JUNIN,-74.75206598,-11.40407015,1127
477,494,I-2,APALLA CALABAZA,JUNIN,SATIPO,CARRETERA CARRETERA ANTIGUA SATIPO HUANCAYO CALABAZA DISTRITO PAMPA HERMOSA PROVINCIA SATIPO DEPARTAMENTO JUNIN,-74.82176762,-11.50786141,1127
478,495,I-3,RIO NEGRO,JUNIN,SATIPO,JIRÓN JR. COLONOS FUNDADORES S7N JR. COLONOS FUNDADORES S7N RIO NEGRO SATIPO JUNIN,-74.65857274,-11.20902393,1129
479,496,I-2,VILLA CAPIRI,JUNIN,SATIPO,OTROS CENTRO POBLADO DE VILLA CAPIRI DISTRITO RIO NEGRO PROVINCIA SATIPO DEPARTAMENTO JUNIN,-74.67223234,-11.13495536,1129
480,497,I-2,RIO CHARI ALTO,JUNIN,SATIPO,OTROS CENTRO POBLADO DE RIO CHARI ALTO DISTRITO RIO NEGRO PROVINCIA SATIPO DEPARTAMENTO JUNIN,-74.6544887,-11.08777485,1129
481,498,I-2,PITOCUNA,JUNIN,SATIPO,OTROS COMUNIDAD NATIVA PITOCUNA DISTRITO RIO NEGRO PROVINCIA SATIPO DEPARTAMENTO JUNIN,-74.65115697,-11.00991289,1129
482,499,I-2,PUENTE IPOKI,JUNIN,SATIPO,OTROS COMUNIDAD NATIVA BOCA CHENI DISTRITO RIO NEGRO PROVINCIA SATIPO DEPARTAMENTO JUNIN,-74.74711629,-11.04499636,1129
483,500,I-2,AOTI,JUNIN,SATIPO,OTROS COMUNIDAD NATIVA AOTI NÚMERO S/N DISTRITO RIO TAMBO PROVINCIA SATIPO DEPARTAMENTO JUNIN,-74.62345981,-10.97248859,1130
484,501,I-2,ALTO PITOCUNA,JUNIN,SATIPO,OTROS COMUNIDAD DE ALTO PITOCUNA DISTRITO RIO NEGRO PROVINCIA SATIPO DEPARTAMENTO JUNIN,-74.59454732,-11.04672232,1129
485,502,I-2,CUSHIVIANI,JUNIN,SATIPO,OTROS COMUNIDAD NATIVA DE CUSHIVIANI DISTRITO RIO NEGRO PROVINCIA SATIPO DEPARTAMENTO JUNIN,-74.69035021,-11.19168558,1129
486,503,I-2,UNION CUVIRIAKI,JUNIN,SATIPO,OTROS COMUNIDAD UNION CUVIRIAKI DISTRITO RIO NEGRO PROVINCIA SATIPO DEPARTAMENTO JUNIN,-74.85390356,-11.15018945,1129
487,504,I-1,SHABASHIPANGO,JUNIN,SATIPO,OTROS COMUNIDAD NATIVA DE SHABASHIPANGO NÚMERO S/N DISTRITO RIO NEGRO PROVINCIA SATIPO DEPARTAMENTO JUNIN,-74.75625883,-11.13794818,1129
488,505,I-2,SAN JUAN DE CHENI,JUNIN,SATIPO,OTROS COMUNIDAD NATIVA SAN JUAN DE CHENI NÚMERO S/N DISTRITO RIO NEGRO PROVINCIA SATIPO DEPARTAMENTO JUNIN,-74.73249328,-11.07890441,1129
489,506,I-3,UNION CAPIRI,JUNIN,SATIPO,OTROS CENTRO POBLADO UNION CAPIRI DISTRITO RIO NEGRO PROVINCIA SATIPO DEPARTAMENTO JUNIN,-74.70111904,-11.09432837,1129
490,507,I-2,BOCA MANTARO,JUNIN,SATIPO,OTROS COMUNIDAD DE BOCA MANTARO NÚMERO SN DISTRITO VIZCATAN DEL ENE PROVINCIA SATIPO DEPARTAMENTO JUNIN,-74.00275223,-12.24424921,1131
491,509,I-1,SAN MIGUEL DE ENE SHINPINSHARIATO,JUNIN,SATIPO,OTROS CENTRO POBLADO DE SAN MIGUEL DEL ENE NÚMERO SN DISTRITO VIZCATAN DEL ENE PROVINCIA SATIPO DEPARTAMENTO JUNIN,-74.02590537,-12.18818872,1131
492,510,I-1,FLORIDA,JUNIN,SATIPO,OTROS COMUNIDAD DE LA FLORIDA NÚMERO SN DISTRITO VIZCATAN DEL ENE PROVINCIA SATIPO DEPARTAMENTO JUNIN,-74.01382593,-12.27534326,1131
493,511,I-1,SAN JUAN DE MANTARO,JUNIN,SATIPO,OTROS COMUNIDAD DE SAN JUAN MANTARO NÚMERO SN DISTRITO VIZCATAN DEL ENE PROVINCIA SATIPO DEPARTAMENTO JUNIN,-74.05208252,-12.26055527,1131
494,512,I-1,TUNONTUARI RIO ENE,JUNIN,SATIPO,OTROS COMUNIDAD DE TUNONTUARI NÚMERO SN DISTRITO VIZCATAN DEL ENE PROVINCIA SATIPO DEPARTAMENTO JUNIN,-74.08109048,-12.16110371,1131
495,513,I-1,QUEMPIRI,JUNIN,SATIPO,OTROS CC.NN. QUEMPIRI DISTRITO RIO TAMBO PROVINCIA SATIPO DEPARTAMENTO JUNIN,-74.00241465,-11.99612569,1130
496,514,I-1,FE Y ALEGRIA LA PRIMAVERA,JUNIN,SATIPO,OTROS ANEXO FE Y ALEGRIA LA PRIMAVERA DISTRITO RIO TAMBO PROVINCIA SATIPO DEPARTAMENTO JUNIN,-74.01263746,-12.04577596,1130
497,515,I-2,YAVIRO,JUNIN,SATIPO,OTROS COMUNIDAD NATIVA YAVIRO DISTRITO RIO TAMBO PROVINCIA SATIPO DEPARTAMENTO JUNIN,-74.0868377,-12.13046948,1130
498,516,I-2,PUERTO ROCA,JUNIN,SATIPO,OTROS COMUNIDAD DE PUERTO ROCA DISTRITO RIO TAMBO PROVINCIA SATIPO DEPARTAMENTO JUNIN,-73.99990395,-12.20106837,1130
499,517,I-3,VALLE ESMERALDA,JUNIN,SATIPO,OTROS CENTRO POBLADO VALLE ESMERALDA CENTRO POBLADO VALLE ESMERALDA RIO TAMBO SATIPO JUNIN,-74.07993581,-12.12959068,1130
500,518,I-1,SAN CARLOS ALTO ENE,JUNIN,SATIPO,OTROS ANEXO SAN CARLOS ALTO ENE DISTRITO RIO TAMBO PROVINCIA SATIPO DEPARTAMENTO JUNIN,-74.05334901,-12.11910639,1130
501,519,II-1,DE APOYO JUNIN,JUNIN,JUNIN,JIRÓN JR.SAENZ PEÑA Nº 650 JR.SAENZ PEÑA Nº 650 JUNIN JUNIN JUNIN,-75.99831121,-11.15840599,1119
502,520,II-2,DE APOYO FELIX MAYORCA SOTO,JUNIN,TARMA,AVENIDA AV.PACHECO Nº 362 AV.PACHECO Nº 362 TARMA TARMA JUNIN,-75.69261968,-11.42508388,1132
503,521,I-4,ACOBAMBA,JUNIN,TARMA,"AVENIDA AV, MANUEL A. ODRIA S/N S/N AV, MANUEL A. ODRIA S/N ACOBAMBA TARMA JUNIN",-75.66359818,-11.35409117,1133
504,522,I-1,PICOY,JUNIN,TARMA,CALLE CALLE LIMA S/N NÚMERO S/N DISTRITO ACOBAMBA PROVINCIA TARMA DEPARTAMENTO JUNIN,-75.69354773,-11.3233906,1133
505,523,I-1,HUARACAYO,JUNIN,TARMA,OTROS SECTOR 5 CACHUNAYOC S/N NÚMERO S/N DISTRITO ACOBAMBA PROVINCIA TARMA DEPARTAMENTO JUNIN,-75.62470078,-11.34951532,1133
506,524,I-1,TUPIN,JUNIN,TARMA,JIRÓN JR. GENERAL BEDOYA S/N NÚMERO S/N DISTRITO ACOBAMBA PROVINCIA TARMA DEPARTAMENTO JUNIN,-75.68640769,-11.366027,1133
507,525,I-1,HUAYLAHUICHAN,JUNIN,TARMA,OTROS SAN JOSE DE HUAYLAHUICHAN S/N N?ERO S/N DISTRITO ACOBAMBA PROVINCIA TARMA DEPARTAMENTO JUNIN,-75.60285687,-11.35630131,1133
508,526,I-1,COLLPA,JUNIN,TARMA,"OTROS BARRIO MANUEL A, ODRIA S/N NÚMERO S/N DISTRITO ACOBAMBA PROVINCIA TARMA DEPARTAMENTO JUNIN",-75.62309146,-11.40342236,1133
509,527,I-3,PALCAMAYO,JUNIN,TARMA,CALLE CALLE LIMA S/N -  PALCAMAYO S/N CALLE LIMA S/N -  PALCAMAYO PALCAMAYO TARMA JUNIN,-75.77033401,-11.29741073,1138
510,528,I-1,YANAPUQUIO,JUNIN,TARMA,PLAZA A UNA CUADRA DE LA PLAZA PRINCIPAL- LOCALIDAD YANAPUQUIO DISTRITO PALCAMAYO PROVINCIA TARMA DEPARTAMENTO JUNIN,-75.81323862,-11.2449789,1138
511,529,I-1,OCHONGA,JUNIN,TARMA,OTROS BARRIO NAHUINCOCHA - OCHONGA DISTRITO PALCAMAYO PROVINCIA TARMA DEPARTAMENTO JUNIN,-75.75323761,-11.31810129,1138
512,530,I-1,RICRICAN CAUQUIRAN,JUNIN,TARMA,OTROS SAN MARTIN S/N - RICRICAN N?ERO S/N DISTRITO PALCAMAYO PROVINCIA TARMA DEPARTAMENTO JUNIN,-75.77134788,-11.24721587,1138
513,531,I-1,INCACHACA YANAMACHAY,JUNIN,TARMA,CALLE CALLE LIMA S/N AL COSTADO DE LA IGLESIA NÚMERO S/N DISTRITO PALCAMAYO PROVINCIA TARMA DEPARTAMENTO JUNIN,-75.8250618,-11.31685674,1138
514,532,I-1,HUAMANIA,JUNIN,TARMA,OTROS LOCAL DE LA I..E Nº 30835 HUAMALIA DISTRITO PALCAMAYO PROVINCIA TARMA DEPARTAMENTO JUNIN,-75.79445243,-11.3058275,1138
515,533,I-1,CALCA,JUNIN,TARMA,PLAZA BARRIO PAICOR - PLAZA PRINCIPAL CALCA DISTRITO PALCAMAYO PROVINCIA TARMA DEPARTAMENTO JUNIN,-75.71568131,-11.3103497,1138
516,534,I-3,SAN PEDRO DE CAJAS,JUNIN,TARMA,CALLE CALLE ESTEBAN QUINTANA S/N BARRIO II S/N CALLE ESTEBAN QUINTANA S/N BARRIO II SAN PEDRO DE CAJAS TARMA JUNIN,-75.86061716,-11.24741971,1139
517,535,I-1,SAN JOSE DE CAYASH,JUNIN,TARMA,"CARRETERA CARRETERA FINAL A SAN JOSE DE CAYASH, AL COSTADO DEL ESTADIO COMUNAL DISTRITO SAN PEDRO DE CAJAS PROVINCIA TARMA DEPARTAMENTO JUNIN",-75.63075721,-11.01426601,1139
518,536,I-1,HUAYRE,JUNIN,JUNIN,JIRÓN JR. JUNIN S/N CPM HUAYRE NÚMERO S/N DISTRITO JUNIN PROVINCIA JUNIN DEPARTAMENTO JUNIN,-76.01805833,-11.001205,1119
519,537,I-3,CARHUAMAYO,JUNIN,JUNIN,JIRÓN JR. TOMAS CAMPOS ARZAPALO Nº 281 JR. TOMAS CAMPOS ARZAPALO Nº 281 CARHUAMAYO JUNIN JUNIN,-76.06391667,-10.92531,1120
520,538,I-1,LLAUPI,JUNIN,JUNIN,PLAZA PLAZA .CENTRO POBLADO LLAUPI DISTRITO ULCUMAYO PROVINCIA JUNIN DEPARTAMENTO JUNIN,-75.53261,-10.747415,1122
521,539,I-1,PUYAY,JUNIN,JUNIN,PLAZA PLAZA PRINCIPAL  S/N -CENTRO POBLADO MENOR PUYAY NÚMERO S/N DISTRITO ULCUMAYO PROVINCIA JUNIN DEPARTAMENTO JUNIN,-75.83224667,-10.93462,1122
522,540,I-1,JACHAHUANCA,JUNIN,JUNIN,OTROS BARRIO CENTRO  JACHAHUANCA DISTRITO ULCUMAYO PROVINCIA JUNIN DEPARTAMENTO JUNIN,-75.76030667,-10.83177833,1122
523,541,I-1,CARAPACHO,JUNIN,JUNIN,CARRETERA BARRIO  CENTRO POBLADO DE CARAPACHO -CARRETERA CARAPACHO A REGISTRO DISTRITO ULCUMAYO PROVINCIA JUNIN DEPARTAMENTO JUNIN,-75.765805,-10.84938167,1122
524,542,I-4,HUASAHUASI,JUNIN,TARMA,CALLE CALLE SAN JUAN S/N S/N CALLE SAN JUAN S/N HUASAHUASI TARMA JUNIN,-75.64738585,-11.26602291,1135
525,543,I-1,CASCA,JUNIN,TARMA,PARQUE PARQUE DE SANTA ROSA DE CASCA S/N SECTOR 1 NÚMERO S/N DISTRITO HUASAHUASI PROVINCIA TARMA DEPARTAMENTO JUNIN,-75.6010631,-11.13820595,1135
526,544,I-1,PUNRAY,JUNIN,TARMA,PLAZA PLAZA PRINCIPAL - BARRIO CENTRO DISTRITO HUASAHUASI PROVINCIA TARMA DEPARTAMENTO JUNIN,-75.63638497,-11.27686373,1135
527,545,I-1,HUACUAS,JUNIN,TARMA,"CARRETERA OGAPASHA, CARRETERA CENTRAL  A COCTOSH OGAPASHA, CARRETERA CENTRAL  A COCTOSH HUASAHUASI TARMA JUNIN",-75.64652932,-11.21812328,1135
528,546,I-1,SAN JUAN DE LA LIBERTAD,JUNIN,TARMA,OTROS BARRIO LIBERTAD S/N CARRETERRA CENTRAL/ CENTRO POBLADO MENOR DE SAN JUAN DE LA LIBERTAD NÚMERO S/N DISTRITO HUASAHUASI PROVINCIA TARMA DEPARTAMENTO JUNIN,-75.69123187,-11.25250671,1135
529,547,I-1,CHIRAS,JUNIN,TARMA,OTROS BARRIO ABAJO S/N CENTRO NÚMERO S/N DISTRITO HUASAHUASI PROVINCIA TARMA DEPARTAMENTO JUNIN,-75.66283572,-11.27516788,1135
530,548,I-1,TIAMBRA,JUNIN,TARMA,OTROS BARRIO CENTRO S/N TIAMBRA NÚMERO S/N DISTRITO HUASAHUASI PROVINCIA TARMA DEPARTAMENTO JUNIN,-75.6874835,-11.24017058,1135
531,550,I-1,SASICUCHO,JUNIN,JUNIN,CARRETERA CARRETERA JUNIN A ONDORES   KM 7 DISTRITO JUNIN PROVINCIA JUNIN DEPARTAMENTO JUNIN,-76.0526,-11.15185333,1119
532,551,I-3,ONDORES,JUNIN,JUNIN,JIRÓN JR. JUNIN S/N CERCA AL CENTRO DE ACOPIO S/N JR. JUNIN S/N CERCA AL CENTRO DE ACOPIO ONDORES JUNIN JUNIN,-76.14909561,-11.09163242,1121
533,552,I-1,PARI,JUNIN,JUNIN,PLAZA PLAZA PRINCIPAL PARI S/N NÚMERO S/N DISTRITO ONDORES PROVINCIA JUNIN DEPARTAMENTO JUNIN,-76.21228,-10.958155,1121
534,553,I-1,ATOCSAICO,JUNIN,JUNIN,CARRETERA CARRETERA CENTRAL JUNIN CARHUACAYAN S/N NÚMERO S/N DISTRITO ONDORES PROVINCIA JUNIN DEPARTAMENTO JUNIN,-76.07760667,-11.29835833,1121
535,554,I-1,SHALACANCHA,JUNIN,JUNIN,"PLAZA PLAZA PRINCIPAL , CPM SHALACANCHA DISTRITO ULCUMAYO PROVINCIA JUNIN DEPARTAMENTO JUNIN",-75.86741144,-11.08072181,1122
536,555,I-1,RAYANNIOC,JUNIN,JUNIN,PLAZA PLAZA  PRINCIPAL - CENTRO POBLADO MENOR S/N NÚMERO S/N DISTRITO ULCUMAYO PROVINCIA JUNIN DEPARTAMENTO JUNIN,-75.8353178,-11.02480354,1122
537,556,I-1,CHUPAN,JUNIN,JUNIN,OTROS IV BARRIO CENTRO POBLADO MENOR CHUPAN DISTRITO SAN PEDRO DE CAJAS PROVINCIA TARMA DEPARTAMENTO JUNIN,-75.78882113,-11.05115024,1139
538,557,I-1,YANEC,JUNIN,JUNIN,CARRETERA CARRETERA CENTRAL KM 15 - YANEC DISTRITO SAN PEDRO DE CAJAS PROVINCIA TARMA DEPARTAMENTO JUNIN,-75.73755263,-11.06211224,1139
539,558,I-1,ACANCOCHA,JUNIN,JUNIN,PLAZA PLAZA PRINCIPAL ACANCOCHA DISTRITO SAN PEDRO DE CAJAS PROVINCIA TARMA DEPARTAMENTO JUNIN,-75.76160309,-11.02751514,1139
540,559,I-4,LA OROYA,JUNIN,JAUJA,AVENIDA AV. HORACIO ZEVALLOS Nº 431 AV. HORACIO ZEVALLOS Nº 431 LA OROYA YAULI JUNIN,-75.90646915,-11.52207533,1141
541,560,I-2,HUAYNACANCHA,JUNIN,JAUJA,AVENIDA AV. 16 DE JUNIO S/N NÚMERO S/N DISTRITO LA OROYA PROVINCIA YAULI DEPARTAMENTO JUNIN,-75.95862675,-11.58001621,1141
542,561,I-2,MARCAPOMACOCHA,JUNIN,JAUJA,CARRETERA VIA CARRETERA YANTAC VIA CARRETERA YANTAC MARCAPOMACOCHA YAULI JUNIN,-76.33859236,-11.40797269,1144
543,562,I-1,SAN FRANCISCO DE YANTAC,JUNIN,JAUJA,OTROS CENTRO POBLADO DE SAN FRANCISCO DE YANTAC CENTRO POBLADO DE SAN FRANCISCO DE YANTAC MARCAPOMACOCHA YAULI JUNIN,-76.40727627,-11.34326752,1144
544,563,I-3,MOROCOCHA,JUNIN,JAUJA,JIRÓN JIRON UNION 101 MOROCOCHA NUEVA JIRON UNION 101 MOROCOCHA NUEVA MOROCOCHA YAULI JUNIN,-76.06266939,-11.58751507,1145
545,564,I-2,PACCHA - LA OROYA,JUNIN,JAUJA,JIRÓN JR.PROGRESO S/N NÚMERO S/N DISTRITO PACCHA PROVINCIA YAULI DEPARTAMENTO JUNIN,-75.95992257,-11.47414939,1146
546,565,I-1,SANTA BARBARA DE CARHUACAYAN,JUNIN,JUNIN,CALLE CALLE LIMA S/N A UNA CUADRA DE LA PLAZA NÚMERO S/N DISTRITO SANTA BARBARA DE CARHUACAYAN PROVINCIA YAULI DEPARTAMENTO JUNIN,-76.28623,-11.20455,1147
547,566,I-3,SANTA ROSA DE SACCO,JUNIN,JAUJA,CALLE CALLE 1 DE JUNIO Nº 120 CALLE 1 DE JUNIO Nº 120 SANTA ROSA DE SACCO YAULI JUNIN,-75.94348941,-11.55157263,1148
548,567,I-2,YAULI- LA OROYA,JUNIN,JAUJA,JIRÓN JR. GRAU Nº 325 JR. GRAU Nº 325 YAULI YAULI JUNIN,-76.08748941,-11.66810856,1150
549,568,I-1,CONGAS ANTACUCHO,JUNIN,TARMA,"CALLE CALLE 28 DE JULIO S/N , PLAZA PRINCIPAL NÚMERO S/N DISTRITO HUARICOLCA PROVINCIA TARMA DEPARTAMENTO JUNIN",-75.55218504,-11.49122055,1134
550,569,I-3,PALCA,JUNIN,TARMA,JIRÓN JIRON SAN MARTIN S/N S/N JIRON SAN MARTIN S/N PALCA TARMA JUNIN,-75.57127679,-11.34601943,1137
551,570,I-1,ÑAHUIN,JUNIN,TARMA,PLAZA PLAZA PRINCIPAL S/N NÚMERO S/N DISTRITO PALCA PROVINCIA TARMA DEPARTAMENTO JUNIN,-75.52460316,-11.28025721,1137
552,571,I-1,CARPAPATA,JUNIN,TARMA,CARRETERA CARRETERA CENTRAL CARPAPATA DISTRITO PALCA PROVINCIA TARMA DEPARTAMENTO JUNIN,-75.55316955,-11.26244323,1137
553,572,I-1,LLACSACACA,JUNIN,TARMA,PLAZA PLAZA  PRINCIPAL LLACSACACA DISTRITO PALCA PROVINCIA TARMA DEPARTAMENTO JUNIN,-75.58718157,-11.34790133,1137
554,573,I-1,CHIPOCAYO,JUNIN,TARMA,"CARRETERA CARRETERA CENTRAL S/N, CHIPOCAYO S/N CARRETERA CENTRAL S/N, CHIPOCAYO PALCA TARMA JUNIN",-75.59769583,-11.35221141,1137
555,574,I-1,YAROCA,JUNIN,TARMA,CARRETERA CARRETERA PRINCIPAL DISTRITO PALCA PROVINCIA TARMA DEPARTAMENTO JUNIN,-75.54419452,-11.37263859,1137
556,575,I-1,HUARIPAMPA,JUNIN,TARMA,CARRETERA CARRETERA CENTRAL S/N - HUARIPAMPA NÚMERO S/N DISTRITO PALCA PROVINCIA TARMA DEPARTAMENTO JUNIN,-75.53234093,-11.43372922,1137
557,576,I-1,PATAY,JUNIN,TARMA,OTROS BARRIO ABAJO S/N NÚMERO S/N DISTRITO PALCA PROVINCIA TARMA DEPARTAMENTO JUNIN,-75.56843266,-11.30832424,1137
558,577,I-2,TAPO,JUNIN,TARMA,CALLE CALLE RODRIGUO ZARATE S/N NÚMERO S/N DISTRITO TAPO PROVINCIA TARMA DEPARTAMENTO JUNIN,-75.56372362,-11.38226672,1140
559,578,I-1,YURACMAYO,JUNIN,TARMA,PLAZA PLAZA PRINCIPAL DISTRITO TAPO PROVINCIA TARMA DEPARTAMENTO JUNIN,-75.52651833,-11.47009209,1140
560,579,I-1,MACO,JUNIN,TARMA,PLAZA PLAZA PRINCIPAL DE MACO DISTRITO TAPO PROVINCIA TARMA DEPARTAMENTO JUNIN,-75.5505156,-11.48790582,1140
561,580,I-1,CASACOTO - SAN ANTONIO,JUNIN,TARMA,CARRETERA CARRETERA PRINCIPAL A PAUCARMARCA A 100 MTS DE LA PLAZA PRINCIPAL DE CASACOTO DISTRITO TAPO PROVINCIA TARMA DEPARTAMENTO JUNIN,-75.57553126,-11.36888005,1140
562,581,I-1,QUETA,JUNIN,TARMA,CARRETERA CARRETERA PRINCIPAL DE QUETA DISTRITO TAPO PROVINCIA TARMA DEPARTAMENTO JUNIN,-75.57828703,-11.43180949,1140
563,582,I-1,PACCHAC,JUNIN,TARMA,OTROS BARRIO CENTRAL S/N NÚMERO S/N DISTRITO TAPO PROVINCIA TARMA DEPARTAMENTO JUNIN,-75.53876448,-11.43594326,1140
564,584,I-1,TARMATAMBO,JUNIN,TARMA,AVENIDA AV 15 DE JULIO S/N NÚMERO S/N DISTRITO TARMA PROVINCIA TARMA DEPARTAMENTO JUNIN,-75.68622427,-11.46847568,1132
565,585,I-1,COCHAS,JUNIN,TARMA,CALLE CALLE CERRO DE PASCO S/N COCHAS ALTO N?ERO S/N DISTRITO TARMA PROVINCIA TARMA DEPARTAMENTO JUNIN,-75.78314322,-11.41750062,1132
566,586,I-1,MUYLO,JUNIN,TARMA,PASAJE PASAJE CIUDAD DE DIOS S/N S/N PASAJE CIUDAD DE DIOS S/N TARMA TARMA JUNIN,-75.77419752,-11.43726392,1132
567,587,I-2,POMACHACA,JUNIN,TARMA,"AVENIDA AV ODRIA S/N , CARRETERA CENTRAL NÚMERO S/N DISTRITO TARMA PROVINCIA TARMA DEPARTAMENTO JUNIN",-75.68859269,-11.38631939,1132
568,588,I-1,MULLUCRO,JUNIN,TARMA,CARRETERA CARRETERA CENTRAL KM 5 - CHUCHUPAMPA DISTRITO TARMA PROVINCIA TARMA DEPARTAMENTO JUNIN,-75.73217064,-11.41738711,1132
569,589,I-1,VICORA CONGAS,JUNIN,TARMA,CARRETERA CARRETERA CENTRAL S/N VICORAS NÚMERO S/N DISTRITO TARMA PROVINCIA TARMA DEPARTAMENTO JUNIN,-75.67838855,-11.45839288,1132
570,590,I-1,MISARURASHA,JUNIN,TARMA,CARRETERA CARRETERA CENTRAL - MISARURASHA DISTRITO TARMA PROVINCIA TARMA DEPARTAMENTO JUNIN,-75.66404206,-11.44940847,1132
571,591,I-1,CARHUACATAC,JUNIN,TARMA,CALLE CALLE ANDRES A. CACERES S/N NÚMERO S/N DISTRITO TARMA PROVINCIA TARMA DEPARTAMENTO JUNIN,-75.6919159,-11.44746512,1132
572,592,I-1,PALCAPACCHA,JUNIN,TARMA,OTROS PJE PALCAPACCHA - ANEXO PALCAPACCHA DISTRITO TARMA PROVINCIA TARMA DEPARTAMENTO JUNIN,-75.80746456,-11.46467205,1132
573,593,I-1,SANYACANCHA,JUNIN,TARMA,PLAZA PLAZA PRINCIPAL DE DURASNIOC DISTRITO TARMA PROVINCIA TARMA DEPARTAMENTO JUNIN,-75.75211115,-11.44082697,1132
574,595,I-2,HUARICOLCA,JUNIN,TARMA,JIRÓN JIRON MANCO CAPAC S/N NÚMERO S/N DISTRITO HUARICOLCA PROVINCIA TARMA DEPARTAMENTO JUNIN,-75.65092634,-11.50803471,1134
575,596,I-1,APAYCANCHILLA,JUNIN,TARMA,CALLE CALLE 24 DE AGOSTO S/N NÚMERO S/N DISTRITO HUARICOLCA PROVINCIA TARMA DEPARTAMENTO JUNIN,-75.58140214,-11.53399374,1134
576,597,I-2,LA UNION LETICIA,JUNIN,TARMA,JIRÓN JIRON UNION S/N S/N JIRON UNION S/N LA UNION TARMA JUNIN,-75.75170287,-11.3803263,1136
577,598,I-1,CUYRUHUASI,JUNIN,TARMA,PLAZA PLAZA PRINCIPAL CUYRUHUASI PLAZA PRINCIPAL CUYRUHUASI LA UNION TARMA JUNIN,-75.73234932,-11.37460039,1136
578,599,I-1,CONDORCOCHA,JUNIN,TARMA,AVENIDA AV. LIMA S/N S/N AV. LIMA S/N LA UNION TARMA JUNIN,-75.7917456,-11.37566114,1136
579,600,I-1,UCHURACRA,JUNIN,TARMA,OTROS POBLADO UCHURRACRA DISTRITO LA UNION PROVINCIA TARMA DEPARTAMENTO JUNIN,-75.71666737,-11.37060473,1136
580,601,I-3,ULCUMAYO,JUNIN,JUNIN,OTROS BARRIO SANTA ROSA MZ 23 LT 4 BARRIO SANTA ROSA MZ 23 LT 4 ULCUMAYO JUNIN JUNIN,-75.88265167,-10.96752333,1122
581,602,I-2,QUILCATACTA,JUNIN,JUNIN,CALLE CALLE 3 DE MAYO S/N CP QUILCATACTA NÚMERO S/N DISTRITO ULCUMAYO PROVINCIA JUNIN DEPARTAMENTO JUNIN,-75.915275,-10.94503167,1122
582,603,I-1,YAPACMARCA,JUNIN,JUNIN,AVENIDA AVENIDA 6 DE AGOSTO S/N  YAPACMARCA NÚMERO S/N DISTRITO ULCUMAYO PROVINCIA JUNIN DEPARTAMENTO JUNIN,-75.86978833,-10.979435,1122
583,604,I-2,TAMBOS,JUNIN,JUNIN,OTROS BARRIO CHAUPIMARCA S/ - CP TAMBOS DISTRITO ULCUMAYO PROVINCIA JUNIN DEPARTAMENTO JUNIN,-75.76310167,-10.98422333,1122
584,605,I-1,SHOGUE,JUNIN,JUNIN,JIRÓN JR. JUNIN S/N - CENTRO POBLADO - SHOGUE NÚMERO S/N DISTRITO ULCUMAYO PROVINCIA JUNIN DEPARTAMENTO JUNIN,-75.90061833,-10.98919,1122
585,606,I-1,QUIPACANCHA,JUNIN,JUNIN,PLAZA PLAZA CENTRO POBLADO MENOR QUIPACANCHA DISTRITO ULCUMAYO PROVINCIA JUNIN DEPARTAMENTO JUNIN,-75.82940333,-10.99533167,1122
586,607,I-1,PISCURRURAY,JUNIN,JUNIN,PLAZA PLAZA DE ARMAS - CPM PISCURRURAY DISTRITO ULCUMAYO PROVINCIA JUNIN DEPARTAMENTO JUNIN,-75.762475,-10.99531,1122
587,608,I-4,CHILCA,JUNIN,VALLE DEL MANTARO,JIRÓN JR. HUMBOLT Nº 900 JR. HUMBOLT Nº 900 CHILCA HUANCAYO JUNIN,-75.20297417,-12.0906394,1040
588,609,I-2,AZAPAMPA,JUNIN,VALLE DEL MANTARO,OTROS ACTUALIZAR DISTRITO CHILCA PROVINCIA HUANCAYO DEPARTAMENTO JUNIN,-75.19559009,-12.09269678,1040
589,610,I-3,AUQUIMARCA,JUNIN,VALLE DEL MANTARO,OTROS ACTUALIZAR DISTRITO CHILCA PROVINCIA HUANCAYO DEPARTAMENTO JUNIN,-75.217569,-12.09301241,1040
590,611,I-2,LA ESPERANZA,JUNIN,VALLE DEL MANTARO,OTROS ACTUALIZAR DISTRITO CHILCA PROVINCIA HUANCAYO DEPARTAMENTO JUNIN,-75.19044421,-12.07536443,1040
591,612,I-2,CHUPURO,JUNIN,VALLE DEL MANTARO,PLAZA PLAZA PRINCIPAL S/N NÚMERO S/N DISTRITO CHUPURO PROVINCIA HUANCAYO DEPARTAMENTO JUNIN,-75.24521772,-12.15560755,1042
592,613,I-1,CARHUAPACCHA,JUNIN,VALLE DEL MANTARO,JIRÓN JR. SAN MARTIN S/N NÚMERO S/N DISTRITO CHUPURO PROVINCIA HUANCAYO DEPARTAMENTO JUNIN,-75.24111787,-12.18202783,1042
593,614,I-1,SOCOS,JUNIN,VALLE DEL MANTARO,CALLE CALLE REAL S/N - BARRIO SAMBLAS NÚMERO S/N DISTRITO CHUPURO PROVINCIA HUANCAYO DEPARTAMENTO JUNIN,-75.21965229,-12.22750823,1042
594,615,I-2,CULLHUAS,JUNIN,VALLE DEL MANTARO,OTROS ACTUALIZAR DISTRITO CULLHUAS PROVINCIA HUANCAYO DEPARTAMENTO JUNIN,-75.16683164,-12.22034638,1044
595,616,I-1,PIHUAS,JUNIN,VALLE DEL MANTARO,CARRETERA CARRETERA CENTRAL KM 28 HYO - HVCA DISTRITO CULLHUAS PROVINCIA HUANCAYO DEPARTAMENTO JUNIN,-75.13964452,-12.27396941,1044
596,617,I-1,RETAMA BAJA,JUNIN,VALLE DEL MANTARO,OTROS VIA FERROCARRIL HYO-HVCA KM 25 S/N NÚMERO S/N DISTRITO CULLHUAS PROVINCIA HUANCAYO DEPARTAMENTO JUNIN,-75.18730204,-12.26584357,1044
597,619,I-2,HUACRAPUQUIO,JUNIN,VALLE DEL MANTARO,AVENIDA AV. PROGRESO S/N BARRIO CENTRO UNIÓN NÚMERO S/N DISTRITO HUACRAPUQUIO PROVINCIA HUANCAYO DEPARTAMENTO JUNIN,-75.22078954,-12.17158341,1046
598,620,I-3,HUANCAN,JUNIN,VALLE DEL MANTARO,AVENIDA AV. 31 DE OCTUBRE Nº 1310 - BARRIO UNION AV. 31 DE OCTUBRE Nº 1310 - BARRIO UNION HUANCAN HUANCAYO JUNIN,-75.21422322,-12.1062638,1048
599,621,I-2,HUARI,JUNIN,VALLE DEL MANTARO,AVENIDA AV. GENERALCORDOVA S/N NÚMERO S/N DISTRITO HUANCAN PROVINCIA HUANCAYO DEPARTAMENTO JUNIN,-75.20519415,-12.10688145,1048
600,622,I-3,HUAYUCACHI,JUNIN,VALLE DEL MANTARO,CARRETERA CARRETERA  A CHUPURO S/N NÚMERO S/N DISTRITO HUAYUCACHI PROVINCIA HUANCAYO DEPARTAMENTO JUNIN,-75.22432523,-12.14005209,1050
601,623,I-1,HUMANMARCA,JUNIN,VALLE DEL MANTARO,CALLE CALLE CESAR VALLEJO S/N NÚMERO S/N DISTRITO HUAYUCACHI PROVINCIA HUANCAYO DEPARTAMENTO JUNIN,-75.2187976,-12.1252814,1050
602,624,I-3,PUCARA,JUNIN,VALLE DEL MANTARO,JIRÓN JR. PEÑA MURRIETA S/N S/N JR. PEÑA MURRIETA S/N PUCARA HUANCAYO JUNIN,-75.14352537,-12.17262238,1054
603,625,I-2,MARCAVALLE,JUNIN,VALLE DEL MANTARO,CALLE CALLE PRINCIPAL - MARCAVALLE DISTRITO PUCARA PROVINCIA HUANCAYO DEPARTAMENTO JUNIN,-75.10680257,-12.22430654,1054
604,626,I-1,RAQUINA,JUNIN,VALLE DEL MANTARO,OTROS RAQUINA DISTRITO PUCARA PROVINCIA HUANCAYO DEPARTAMENTO JUNIN,-75.12401818,-12.17465177,1054
605,627,I-1,JATUN SUCLLA,JUNIN,VALLE DEL MANTARO,JATUN SUCLLA,-75.09970537,-12.19416442,1054
606,628,I-1,DOS DE MAYO,JUNIN,VALLE DEL MANTARO,OTROS ACTUALIZAR DISTRITO PUCARA PROVINCIA HUANCAYO DEPARTAMENTO JUNIN,-75.12734136,-12.25451489,1054
607,629,I-3,SAPALLANGA,JUNIN,VALLE DEL MANTARO,JIRÓN JR. BOLOGNESI S/N S/N JR. BOLOGNESI S/N SAPALLANGA HUANCAYO JUNIN,-75.15826995,-12.13947696,1060
608,630,I-2,LA PUNTA,JUNIN,VALLE DEL MANTARO,CALLE CALLE REAL S/N - BARRIO CENTRO NÚMERO S/N DISTRITO SAPALLANGA PROVINCIA HUANCAYO DEPARTAMENTO JUNIN,-75.17841721,-12.1198314,1060
609,631,I-1,COCHARCAS,JUNIN,VALLE DEL MANTARO,AVENIDA AV. 15 DE SETIEMBRE S/N - COCHARCAS NÚMERO S/N DISTRITO SAPALLANGA PROVINCIA HUANCAYO DEPARTAMENTO JUNIN,-75.18231709,-12.13612357,1060
610,632,I-1,MILUCHACA,JUNIN,VALLE DEL MANTARO,AVENIDA AV. 2 DE MAYO S/N - MILUCHACA NÚMERO S/N DISTRITO SAPALLANGA PROVINCIA HUANCAYO DEPARTAMENTO JUNIN,-75.16578164,-12.12131008,1060
611,633,I-1,MIRAFLORES,JUNIN,VALLE DEL MANTARO,AV. RAMIRO PRIALE S/N MIRAFLORES,-75.16032691,-12.12857099,1060
612,634,I-1,HUAYLLASPANCA,JUNIN,VALLE DEL MANTARO,OTROS ACTUALIZAR DISTRITO SAPALLANGA PROVINCIA HUANCAYO DEPARTAMENTO JUNIN,-75.19730677,-12.11880742,1060
613,635,I-2,VIQUES,JUNIN,VALLE DEL MANTARO,AVENIDA AV. HUASCAR S/N NÚMERO S/N DISTRITO VIQUES PROVINCIA HUANCAYO DEPARTAMENTO JUNIN,-75.23055982,-12.15842978,1063
614,636,I-2,CHAMBARA,JUNIN,RED DE SALUD CHUPACA,JIRÓN JR. FRANCISCO BOLOGNESI S/N S/N JR. FRANCISCO BOLOGNESI S/N CHAMBARA CONCEPCION JUNIN,-75.37525636,-12.02724717,1067
615,637,I-1,SANTA ROSA DE TISTES,JUNIN,RED DE SALUD CHUPACA,JIRÓN JR. JULIO CASTILLO S/N S/N JR. JULIO CASTILLO S/N CHAMBARA CONCEPCION JUNIN,-75.40132993,-11.99718887,1067
616,638,I-1,SAN BLAS,JUNIN,RED DE SALUD CHUPACA,JIRÓN JR. CUNAS S/N NÚMERO S/N DISTRITO CHAMBARA PROVINCIA CONCEPCION DEPARTAMENTO JUNIN,-75.40334358,-12.02863079,1067
617,639,I-1,ANGASMAYO,JUNIN,RED DE SALUD CHUPACA,JIRÓN JR. 20 DE AGOSTO S/N NÚMERO S/N DISTRITO CHAMBARA PROVINCIA CONCEPCION DEPARTAMENTO JUNIN,-75.39295487,-12.03806043,1067
618,640,I-1,MANZANARES,JUNIN,RED DE SALUD CHUPACA,JIRÓN JR. ATAHUALPA CUADRA 2 S/N NÚMERO S/N DISTRITO MANZANARES PROVINCIA CONCEPCION DEPARTAMENTO JUNIN,-75.34372758,-12.01485935,1071
